,code,name,address,tel,gps,level,openTime,isClose,pcode,ccode,dcode,p,c,d,longitude,latitude
0,A0010015F43,天坛东门雅迪,东城体育馆路,13811011982,"116.428847,39.89034",二网,8：00-19：00,1,110000,110100,110101,北京市,北京市市辖区,东城区,116.428847,39.89034
1,A0010015F42,安定门雅迪,安定门内大街,18518088757,"116.414589,39.953477",二网,8：00-19：00,1,110000,110100,110101,北京市,北京市市辖区,东城区,116.414589,39.953477
2,A0010015F44,东四十条雅迪,东城区东四十条109号,18611605867,"116.427336,39.939983",二网,8：00-19：00,1,110000,110100,110101,北京市,北京市市辖区,东城区,116.427336,39.939983
3,A0010015F49,白纸坊雅迪,西城区广外鸭子桥北里10号楼,18911667388,"116.355374,39.883962",二网,8：00-19：00,1,110000,110100,110101,北京市,北京市市辖区,东城区,116.355374,39.883962
4,A0010015F46,赵登禹路雅迪,赵登禹路交通队对面,13601302282,"116.373788,39.934303",二网,8：00-19：00,1,110000,110100,110102,北京市,北京市市辖区,西城区,116.373788,39.934303
5,A0010015F45,宽街雅迪,东城区地安门西大街,13051031299,"116.412297,39.940005",二网,8：00-19：00,1,110000,110100,110102,北京市,北京市市辖区,西城区,116.412297,39.940005
6,A0010015F47,天宁寺雅迪,西城天宁寺东里11号,18301400569,"116.353248,39.899853",二网,8：00-19：00,1,110000,110100,110102,北京市,北京市市辖区,西城区,116.353248,39.899853
7,A0010015F52,阜成门雅迪,阜成门外大街22号楼,13520395552,"116.351485,39.928069",二网,8：00-19：00,1,110000,110100,110102,北京市,北京市市辖区,西城区,116.351485,39.928069
8,A0010015F53,南横东街雅迪,南横东街街道,18911667257,"116.388423,39.889929",二网,8：00-19：00,1,110000,110100,110102,北京市,北京市市辖区,西城区,116.388423,39.889929
9,A0010015F48,陶然亭雅迪,西城区陶然亭公园北门南,13161185463,"116.393874,39.886191",二网,8：00-19：00,1,110000,110100,110105,北京市,北京市市辖区,朝阳区,116.393874,39.886191
10,A0010015F83,云岗南宫雅迪,丰台区王佐乡南宫商业街73-75-76,13581625787,"116.162215,39.813824",二网,8：00-19：00,1,110000,110100,110105,北京市,北京市市辖区,朝阳区,116.162215,39.813824
11,A0010015F84,横街子雅迪,朝阳区十八里店乡横街子邮局对面,13521753303,"116.513892,39.833165",二网,8：00-19：00,1,110000,110100,110105,北京市,北京市市辖区,朝阳区,116.513892,39.833165
12,A0010015F85,垡头天宝雅迪,朝阳区垡头天宝旧货市场,13691034030,"116.516872,39.876313",二网,8：00-19：00,1,110000,110100,110105,北京市,北京市市辖区,朝阳区,116.516872,39.876313
13,A0010015F86,和平里雅迪,朝阳区和平西街8区1号楼1-7,13120233650,"116.42515,39.968969",二网,8：00-19：00,1,110000,110100,110105,北京市,北京市市辖区,朝阳区,116.42515,39.968969
14,A0010015F87,大鲁店雅迪,朝阳区大鲁店富力又一城底商,13552669795,"116.570213,39.85158",二网,8：00-19：00,1,110000,110100,110105,北京市,北京市市辖区,朝阳区,116.570213,39.85158
15,A0010015F88,双井雅迪,朝阳区广渠门外马圈公交站,18910681669,"116.460317,39.899544",二网,8：00-19：00,1,110000,110100,110105,北京市,北京市市辖区,朝阳区,116.460317,39.899544
16,A0010015F89,甘露园雅迪,朝阳区甘露园南里一区7号楼,13241052559,"116.520473,39.922382",二网,8：00-19：00,1,110000,110100,110105,北京市,北京市市辖区,朝阳区,116.520473,39.922382
17,A0010015F90,大黄庄雅迪,朝阳区东五环大黄庄桥头,13121960601,"116.55758,39.921551",二网,8：00-19：00,1,110000,110100,110105,北京市,北京市市辖区,朝阳区,116.55758,39.921551
18,A0010015F91,石佛营雅迪,朝阳区八里庄125号楼底商,18310436875,"116.502723,39.936698",二网,8：00-19：00,1,110000,110100,110105,北京市,北京市市辖区,朝阳区,116.502723,39.936698
19,A0010015F92,南皋雅迪,朝阳区崔各庄乡南皋路,13911572186,"116.524347,40.007453",二网,8：00-19：00,1,110000,110100,110105,北京市,北京市市辖区,朝阳区,116.524347,40.007453
20,A0010015F93,百子湾雅迪,百子湾东路沿海赛洛城106-5,15901031497,"116.512283,39.906884",二网,8：00-19：00,1,110000,110100,110105,北京市,北京市市辖区,朝阳区,116.512283,39.906884
21,A0010015F94,管庄雅迪,朝阳区管庄西里62号楼南1-101,15931963558,"116.596949,39.919253",二网,8：00-19：00,1,110000,110100,110105,北京市,北京市市辖区,朝阳区,116.596949,39.919253
22,A0010015F95,十里河雅迪,朝阳区十里河村,18511668728,"116.273086,39.838102",二网,8：00-19：00,1,110000,110100,110105,北京市,北京市市辖区,朝阳区,116.273086,39.838102
23,A0010015F96,左家庄雅迪,朝阳区左家庄西街5号院5号楼底商,13681279526,"116.446425,39.956611",二网,8：00-19：00,1,110000,110100,110105,北京市,北京市市辖区,朝阳区,116.446425,39.956611
24,A0010015F97,芍药居雅迪,朝阳区芍药居北里318楼1层318-5,13911055517,"116.437808,39.992573",二网,8：00-19：00,1,110000,110100,110105,北京市,北京市市辖区,朝阳区,116.437808,39.992573
25,A0010015F98,管庄西里雅迪,朝阳区管庄西里78-120,13811197464,"116.590623,39.91987",二网,8：00-19：00,1,110000,110100,110105,北京市,北京市市辖区,朝阳区,116.590623,39.91987
26,A0010015F118,立水桥雅迪,昌平区东小口镇嘉诚花园8号楼,17701037516,"116.411637,40.051669",二网,8：00-19：00,1,110000,110100,110105,北京市,北京市市辖区,朝阳区,116.411637,40.051669
27,A0010015F120,康庄雅迪,康庄镇四街,13683660230,"116.471857,39.891817",二网,8：00-19：00,1,110000,110100,110105,北京市,北京市市辖区,朝阳区,116.471857,39.891817
28,A0010015F63,冷泉雅迪,海淀区西北旺镇冷泉村518号,13001905908,"116.230811,40.040841",二网,8：00-19：00,1,110000,110100,110106,北京市,北京市市辖区,丰台区,116.230811,40.040841
29,A0010015F68,花园路雅迪,海淀区花园路13号,13501301201,"116.370924,39.978883",二网,8：00-19：00,1,110000,110100,110106,北京市,北京市市辖区,丰台区,116.370924,39.978883
30,A0010015F69,看丹桥雅迪,丰台区看丹桥西南开西里22号,13520941218,"116.28556,39.845828",二网,8：00-19：00,1,110000,110100,110106,北京市,北京市市辖区,丰台区,116.28556,39.845828
31,A0010015F70,首经贸雅迪,丰台区花乡首经贸东街1号院回迁楼,18810037787,"116.331194,39.84649",二网,8：00-19：00,1,110000,110100,110106,北京市,北京市市辖区,丰台区,116.331194,39.84649
32,A0010015F71,三营门雅迪,丰台区南苑路辅路,18510757748,"116.403361,39.823868",二网,8：00-19：00,1,110000,110100,110106,北京市,北京市市辖区,丰台区,116.403361,39.823868
33,A0010015F72,新发地雅迪,丰台区新发地天伦锦城15号楼B座,18911667226,"116.340138,39.824696",二网,8：00-19：00,1,110000,110100,110106,北京市,北京市市辖区,丰台区,116.340138,39.824696
34,A0010015F73,岳各庄南桥雅迪,丰台区岳各庄南桥西33号,18630092566,"116.282513,39.878277",二网,8：00-19：00,1,110000,110100,110106,北京市,北京市市辖区,丰台区,116.282513,39.878277
35,A0010015F74,马家堡雅迪,丰台区马家堡路25号,13621316667,"116.393454,39.871283",二网,8：00-19：00,1,110000,110100,110106,北京市,北京市市辖区,丰台区,116.393454,39.871283
36,A0010015F75,火车站雅迪,丰台区正阳大街2号,13522631890,"116.29422,39.854431",二网,8：00-19：00,1,110000,110100,110106,北京市,北京市市辖区,丰台区,116.29422,39.854431
37,A0010015F76,红莲市场雅迪,丰台区西站南路红莲市场,13001170099,"116.329923,39.881759",二网,8：00-19：00,1,110000,110100,110106,北京市,北京市市辖区,丰台区,116.329923,39.881759
38,A0010015F77,刘家窑雅迪,丰台区刘家窑桥南路西100米,13269955567,"116.428143,39.861591",二网,8：00-19：00,1,110000,110100,110106,北京市,北京市市辖区,丰台区,116.428143,39.861591
39,A0010015F78,卢沟桥雅迪,卢沟桥小月中路新悦家园5号楼3号,13126628802,"116.240756,39.851255",二网,8：00-19：00,1,110000,110100,110106,北京市,北京市市辖区,丰台区,116.240756,39.851255
40,A0010015F79,长辛店雅迪,丰台区长辛店大街第十中学旁,13521591948,"116.213429,39.820537",二网,8：00-19：00,1,110000,110100,110106,北京市,北京市市辖区,丰台区,116.213429,39.820537
41,A0010015F80,青塔雅迪,丰台区青塔西路43号院,13161529585,"116.27132,39.899568",二网,8：00-19：00,1,110000,110100,110106,北京市,北京市市辖区,丰台区,116.27132,39.899568
42,A0010015F81,角门雅迪,丰台区角门路马家堡西里56号楼底商,18911667069,"116.378022,39.856782",二网,8：00-19：00,1,110000,110100,110106,北京市,北京市市辖区,丰台区,116.378022,39.856782
43,A0010015F82,右安门雅迪,丰台区右安门外大街45号,15910990991,"116.370827,39.869226",二网,8：00-19：00,1,110000,110100,110106,北京市,北京市市辖区,丰台区,116.370827,39.869226
44,A0010015F126,于庄雅迪,于庄村沁园春景小区底商5号,15201327781,"116.075616,39.676511",二网,8：00-19：00,1,110000,110100,110106,北京市,北京市市辖区,丰台区,116.075616,39.676511
45,A0010015F127,南磨房雅迪,长辛店北京二七机车厂体育场东150 米,15910907489,"116.40387397,39.914889",二网,8：00-19：00,1,110000,110100,110106,北京市,北京市市辖区,丰台区,116.40387397,39.914889
46,A0010015F100,南沙滩雅迪,朝阳区南沙滩和谐小区,18510006008,"116.378996,40.00471",二网,8：00-19：00,1,110000,110100,110107,北京市,北京市市辖区,石景山区,116.378996,40.00471
47,A0010015F101,神马飞腾雅迪,石景山区苹果也不南路东口,13716282516,"116.204205,39.93521",二网,8：00-19：00,1,110000,110100,110107,北京市,北京市市辖区,石景山区,116.204205,39.93521
48,A0010015F102,麻峪雅迪,石景山区麻峪村北口,15210978978,"116.13392,39.945043",二网,8：00-19：00,1,110000,110100,110107,北京市,北京市市辖区,石景山区,116.13392,39.945043
49,A0010015F103,模式口雅迪,石景山区模式口西里,15510396968,"116.162656,39.939475",二网,8：00-19：00,1,110000,110100,110107,北京市,北京市市辖区,石景山区,116.162656,39.939475
50,A0010015F104,鲁谷雅迪,石景山区鲁谷大街五芳园小区,13521173857,"116.235922,39.90399",二网,8：00-19：00,1,110000,110100,110107,北京市,北京市市辖区,石景山区,116.235922,39.90399
51,A0010015F105,古城雅迪,石景山区古城大街6-12,13141279206,"116.193244,39.920444",二网,8：00-19：00,1,110000,110100,110107,北京市,北京市市辖区,石景山区,116.193244,39.920444
52,A0010015F61,朱房路雅迪,海淀朱房路公交站,15313790691,"116.333312,40.037043",二网,8：00-19：00,1,110000,110100,110108,北京市,北京市市辖区,海淀区,116.333312,40.037043
53,A0010015E03,清华西门雅迪,海淀区清华西门水磨西街27号,13910608279,"116.321212,40.009273",一网,8：00-19：00,1,110000,110100,110108,北京市,北京市市辖区,海淀区,116.321212,40.009273
54,A0010015F50,德胜门雅迪,西城区德胜门内大街乙228号,18311100031,"116.386189,39.944563",二网,8：00-19：00,1,110000,110100,110108,北京市,北京市市辖区,海淀区,116.386189,39.944563
55,A0010015F51,西直门雅迪,西城区西直门外南路榆树馆,13611360556,"116.339955,39.973806",二网,8：00-19：00,1,110000,110100,110108,北京市,北京市市辖区,海淀区,116.339955,39.973806
56,A0010015F54,珠市口雅迪,珠市口西大街113-2,15601307360,"116.399852,39.896573",二网,8：00-19：00,1,110000,110100,110108,北京市,北京市市辖区,海淀区,116.399852,39.896573
57,A0010015F55,田村雅迪,海淀区田村路41号院,13121579037,"116.2751,39.935307",二网,8：00-19：00,1,110000,110100,110108,北京市,北京市市辖区,海淀区,116.2751,39.935307
58,A0010015F56,小西天雅迪,海淀区小西天新街口外大街31号院,15801114981,"116.37768,39.95801",二网,8：00-19：00,1,110000,110100,110108,北京市,北京市市辖区,海淀区,116.37768,39.95801
59,A0010015F58,四道口雅迪,海淀区学院南路46-8,13121858768,"116.357087,39.963582",二网,8：00-19：00,1,110000,110100,110108,北京市,北京市市辖区,海淀区,116.357087,39.963582
60,A0010015F59,西三旗雅迪,海淀区建材西路85号,13161909077,"116.341509,40.064197",二网,8：00-19：00,1,110000,110100,110108,北京市,北京市市辖区,海淀区,116.341509,40.064197
61,A0010015F60,上庄雅迪,海淀区上庄镇村东口幼儿园旁,18911339126,"116.220663,40.104951",二网,8：00-19：00,1,110000,110100,110108,北京市,北京市市辖区,海淀区,116.220663,40.104951
62,A0010015F62,罗庄雅迪,海淀区罗庄东里小区西门9号楼,15712975807,"116.352467,39.980585",二网,8：00-19：00,1,110000,110100,110108,北京市,北京市市辖区,海淀区,116.352467,39.980585
63,A0010015F65,娘娘府雅迪,海淀区香山东路厢红旗娘娘府公交站,13121599920,"116.252186,40.007119",二网,8：00-19：00,1,110000,110100,110108,北京市,北京市市辖区,海淀区,116.252186,40.007119
64,A0010015F66,增光路雅迪,海淀区增光路21号院南院东门,15210260802,"116.336288,39.933548",二网,8：00-19：00,1,110000,110100,110108,北京市,北京市市辖区,海淀区,116.336288,39.933548
65,A0010015F67,西北旺雅迪,海淀区西北旺镇,15910329043,"116.263332,40.048806",二网,8：00-19：00,1,110000,110100,110108,北京市,北京市市辖区,海淀区,116.263332,40.048806
66,A0010015F99,磨房北里雅迪,北京市朝阳区西大望路甲27号东418,18501366696,"116.489033,39.890487",二网,8：00-19：00,1,110000,110100,110108,北京市,北京市市辖区,海淀区,116.489033,39.890487
67,A0010015F122,来广营雅迪,朝阳来广营乡朝来万通市场,13021059310,"116.469576,40.042508",二网,8：00-19：00,1,110000,110100,110108,北京市,北京市市辖区,海淀区,116.469576,40.042508
68,A0010015F116,冯村雅迪,曹各庄后街与西北环线交叉口东北50,13661237238,"116.119228,39.917719",二网,8：00-19：00,1,110000,110100,110109,北京市,北京市市辖区,门头沟区,116.119228,39.917719
69,A0010015F02,城关雅迪,良乡拱辰大街雅迪旗舰店,18911667097,"116.148237,39.733855",二网,8：00-19：00,1,110000,110100,110111,北京市,北京市市辖区,房山区,116.148237,39.733855
70,A0010015F03,窦店雅迪,房山区窦店镇窦店大街,13911325239,"116.074812,39.652845",二网,8：00-19：00,1,110000,110100,110111,北京市,北京市市辖区,房山区,116.074812,39.652845
71,A0010015F04,安庄村雅迪,房山区良乡镇安庄商业街雅迪电动车,13693636241,"116.126731,39.757539",二网,8：00-19：00,1,110000,110100,110111,北京市,北京市市辖区,房山区,116.126731,39.757539
72,A0010015F05,大石窝雅迪,房山区大石窝镇商业街窦店路口南100米 ,13552080009,"115.825999,39.563901",二网,8：00-19：00,1,110000,110100,110111,北京市,北京市市辖区,房山区,115.825999,39.563901
73,A0010015F06,张家场雅迪,房山区长阳镇张家厂村长阳路南50米 ,13520777276,"116.228587,39.770561",二网,8：00-19：00,1,110000,110100,110111,北京市,北京市市辖区,房山区,116.228587,39.770561
74,A0010015F07,岳各庄雅迪,房山区韩村河镇岳各庄大街雅迪专卖店房易路附近 ,13716771000,"115.914724,39.617043",二网,8：00-19：00,1,110000,110100,110111,北京市,北京市市辖区,房山区,115.914724,39.617043
75,A0010015F08,吴庄村雅迪,房山区阎村镇南坊村公交车站南,15711382906,"116.060121,39.740429",二网,8：00-19：00,1,110000,110100,110111,北京市,北京市市辖区,房山区,116.060121,39.740429
76,A0010015F09,古城电器雅迪,房山区张坊镇古城大街,13718191119,"115.721531,39.576986",二网,8：00-19：00,1,110000,110100,110111,北京市,北京市市辖区,房山区,115.721531,39.576986
77,A0010015F10,坨里雅迪,房山区青龙湖镇坨里大街南口,15910373789,"116.039119,39.777467",二网,8：00-19：00,1,110000,110100,110111,北京市,北京市市辖区,房山区,116.039119,39.777467
78,A0010015F11,兴隆庄村雅迪,北京市房山区房窑路9号 ,15001004105,"116.161142,39.646761",二网,8：00-19：00,1,110000,110100,110111,北京市,北京市市辖区,房山区,116.161142,39.646761
79,A0010015F13,大董村雅迪,房山区闫村镇大董村,13716660505,"116.06851,39.722195",二网,8：00-19：00,1,110000,110100,110111,北京市,北京市市辖区,房山区,116.06851,39.722195
80,A0010015F64,翠微路雅迪,海淀区翠微路甲24号,18911667268,"116.309979,39.919255",二网,8：00-19：00,1,110000,110100,110111,北京市,北京市市辖区,房山区,116.309979,39.919255
81,A0010015F125,徐辛庄雅迪,徐辛庄村西水务所旁,18611685243,"116.695136,39.99246",二网,8：00-19：00,1,110000,110100,110111,北京市,北京市市辖区,房山区,116.695136,39.99246
82,A0010015F36,宋庄雅迪,通州区宋庄镇,13651133889,"116.738218,39.948178",二网,8：00-19：00,1,110000,110100,110112,北京市,北京市市辖区,通州区,116.738218,39.948178
83,A0010015F37,周营雅迪,通州区马驹桥镇周营村,13811837530,"116.5678639,39.731864",二网,8：00-19：00,1,110000,110100,110112,北京市,北京市市辖区,通州区,116.5678639,39.731864
84,A0010015F38,马驹桥雅迪,通州区马驹桥镇莲水怡园底商,15911039010,"116.590519,39.808401",二网,8：00-19：00,1,110000,110100,110112,北京市,北京市市辖区,通州区,116.590519,39.808401
85,A0010015F39,次渠雅迪,通州区次渠大街怡芳园5号4单元,13651337796,"116.59065,39.8084",二网,8：00-19：00,1,110000,110100,110112,北京市,北京市市辖区,通州区,116.59065,39.8084
86,A0010015F124,白庙雅迪,北七家镇白庙村203号,13522045188,"116.379841,40.106493",二网,8：00-19：00,1,110000,110100,110112,北京市,北京市市辖区,通州区,116.379841,40.106493
87,A0010015G128,顺义石园雅迪,石园西区,15313790691,"116.668548,40.118259",三网,8：00-19：00,1,110000,110100,110113,北京市,北京市市辖区,顺义区,116.668548,40.118259
88,A0010015F112,巨各庄雅迪,密云县巨各庄镇,13716161613,"116.954173,40.383402",二网,8：00-19：00,1,110000,110100,110113,北京市,北京市市辖区,顺义区,116.954173,40.383402
89,A0010015F113,顺义俸伯雅迪,北京市顺义区俸伯小学对面（商场底商）,13717749994,"116.722985,40.139742",二网,8：00-19：00,1,110000,110100,110113,北京市,北京市市辖区,顺义区,116.722985,40.139742
90,A0010015F114,顺义义宾雅迪,顺义区义宾南区甲1-25号,01069460037,"116.654853,40.138205",二网,8：00-19：00,1,110000,110100,110113,北京市,北京市市辖区,顺义区,116.654853,40.138205
91,A0010015G01,顺义杨镇雅迪店,顺义区顺平路杨镇段南一号,13439518664,"116.6244,40.125356",三网,8：00-19：00,1,110000,110100,110113,北京市,北京市市辖区,顺义区,116.6244,40.125356
92,A0010015G02,顺义大孙各庄雅迪,顺义区大孙各庄镇府前东街6号,18911667205,"116.928028,40.097224",三网,8：00-19：00,1,110000,110100,110113,北京市,北京市市辖区,顺义区,116.928028,40.097224
93,A0010015G03,顺义北务雅迪,顺义区商业街西侧商住楼31号,13581960229,"116.823125,40.071914",三网,8：00-19：00,1,110000,110100,110113,北京市,北京市市辖区,顺义区,116.823125,40.071914
94,A0010015G04,河南村雅迪,顺义区仁和镇河南村安定路4号,18410097590,"116.707656,40.106814",三网,8：00-19：00,1,110000,110100,110113,北京市,北京市市辖区,顺义区,116.707656,40.106814
95,A0010015G05,北小营雅迪,顺义区北小营镇政府西路21-1号,13311169733,"116.722929,40.139698",三网,8：00-19：00,1,110000,110100,110113,北京市,北京市市辖区,顺义区,116.722929,40.139698
96,A0010015G06,牛栏山雅迪,顺义区牛栏山农副产品市场B座6-7号,13611135518,"116.659784,40.217171",三网,8：00-19：00,1,110000,110100,110113,北京市,北京市市辖区,顺义区,116.659784,40.217171
97,A0010015G08,高丽营雅迪,顺义区高丽营镇四村村委会东侧100米,13621398522,"116.508831,40.175995",三网,8：00-19：00,1,110000,110100,110113,北京市,北京市市辖区,顺义区,116.508831,40.175995
98,A0010015G09,天竺雅迪,顺义区 顺义区天竺镇岗山路口  ,15330221607,"116.611347,40.051874",三网,8：00-19：00,1,110000,110100,110113,北京市,北京市市辖区,顺义区,116.611347,40.051874
99,A0010015G11,张镇雅迪,顺义区张镇西营村张镇大街13号,13701102887,"116.951473,40.157767",三网,8：00-19：00,1,110000,110100,110113,北京市,北京市市辖区,顺义区,116.951473,40.157767
100,A0010015G12,半壁店雅迪,南半壁店东二街与李天路交叉口西南50米 ,18500127167,"116.640383,40.040399",三网,8：00-19：00,1,110000,110100,110113,北京市,北京市市辖区,顺义区,116.640383,40.040399
101,A0010015G13,西马各庄雅迪,顺义区高丽营镇西马各庄村明华街41号3门,13716084317,"116.560323,40.139325",三网,8：00-19：00,1,110000,110100,110113,北京市,北京市市辖区,顺义区,116.560323,40.139325
102,A0010015G14,李遂雅迪,李遂镇潮华路沟北段15号,13241030318,"116.767447,40.106976",三网,8：00-19：00,1,110000,110100,110113,北京市,北京市市辖区,顺义区,116.767447,40.106976
103,A0010015F24,回龙观雅迪,昌平回龙观天露园一区22号楼183-2,13716767183,"116.322936,40.089207",二网,8：00-19：00,1,110000,110100,110114,北京市,北京市市辖区,昌平区,116.322936,40.089207
104,A0010015F25,水屯雅迪,城南街道水屯批发市场 ,13910591806,"116.234528,40.201789",二网,8：00-19：00,1,110000,110100,110114,北京市,北京市市辖区,昌平区,116.234528,40.201789
105,A0010015F26,白坊雅迪,昌平区天通苑白坊市场南门60-61,13601030976,"116.451967,40.078025",二网,8：00-19：00,1,110000,110100,110114,北京市,北京市市辖区,昌平区,116.451967,40.078025
106,A0010015F27,西关雅迪,昌平区西关路建明里小区1号楼6-2,18911667066,"116.231864,40.22955",二网,8：00-19：00,1,110000,110100,110114,北京市,北京市市辖区,昌平区,116.231864,40.22955
107,A0010015F28,兴寿雅迪,昌平区兴寿镇兴寿村市场街,13520740478,"116.421805,40.226181",二网,8：00-19：00,1,110000,110100,110114,北京市,北京市市辖区,昌平区,116.421805,40.226181
108,A0010015F29,南口雅迪,昌平区南口镇东升街10号,15718807901,"116.141954,40.243427",二网,8：00-19：00,1,110000,110100,110114,北京市,北京市市辖区,昌平区,116.141954,40.243427
109,A0010015F30,半截塔雅迪,昌平区半截塔村,13552875304,"116.410323,40.087073",二网,8：00-19：00,1,110000,110100,110114,北京市,北京市市辖区,昌平区,116.410323,40.087073
110,A0010015F31,沙河桥雅迪,昌平区沙河镇龚华城大街,15311238716,"116.274595,40.13104",二网,8：00-19：00,1,110000,110100,110114,北京市,北京市市辖区,昌平区,116.274595,40.13104
111,A0010015F32,霍营雅迪,昌平区霍营村,18910157065,"116.371068,40.080827",二网,8：00-19：00,1,110000,110100,110114,北京市,北京市市辖区,昌平区,116.371068,40.080827
112,A0010015F33,小汤山雅迪,昌平区小汤山镇马坊村,15910662264,"116.407457,40.159884",二网,8：00-19：00,1,110000,110100,110114,北京市,北京市市辖区,昌平区,116.407457,40.159884
113,A0010015F34,东沙各庄雅迪,昌平区东沙各庄市场,13366396775,"116.415937,40.13421",二网,8：00-19：00,1,110000,110100,110114,北京市,北京市市辖区,昌平区,116.415937,40.13421
114,A0010015F35,白庙雅迪,昌平区北七家镇白庙中街,13520332838,"116.431045,40.124055",二网,8：00-19：00,1,110000,110100,110114,北京市,北京市市辖区,昌平区,116.431045,40.124055
115,A0010015F123,学院路雅迪,清华东路17-15,13171670788,"116.359582,40.011376",二网,8：00-19：00,1,110000,110100,110114,北京市,北京市市辖区,昌平区,116.359582,40.011376
116,A0010015E02,黄村雅迪,北京市大兴区车站北里甲21号楼,15910819002,"116.340357,39.72863",一网,8：00-19：00,1,110000,110100,110115,北京市,北京市市辖区,大兴区,116.340357,39.72863
117,A0010015F14,西红门雅迪,大兴西红门路绿林苑小区2098西红门西红门路9-8号 ,15237681230,"116.373911,39.800847",二网,8：00-19：00,1,110000,110100,110115,北京市,北京市市辖区,大兴区,116.373911,39.800847
118,A0010015F15,青云雅迪,大兴区青云店镇中心小学对面,15699766508,"116.524101,39.686957",二网,8：00-19：00,1,110000,110100,110115,北京市,北京市市辖区,大兴区,116.524101,39.686957
119,A0010015F16,狼垡雅迪,大兴区狼垡二村,18600563591,"116.292215,39.788242",二网,8：00-19：00,1,110000,110100,110115,北京市,北京市市辖区,大兴区,116.292215,39.788242
120,A0010015F17,德茂庄雅迪,大兴区德茂庄德裕街6号,13716735190,"116.441544,39.783135",二网,8：00-19：00,1,110000,110100,110115,北京市,北京市市辖区,大兴区,116.441544,39.783135
121,A0010015F18,采育雅迪,北京大兴区采育镇,15313550596,"116.64271,39.657639",二网,8：00-19：00,1,110000,110100,110115,北京市,北京市市辖区,大兴区,116.64271,39.657639
122,A0010015F19,小红门雅迪,大兴区旧宫镇北科技路南1幢A区2-014号,13161562914,"116.450342,39.815513",二网,8：00-19：00,1,110000,110100,110115,北京市,北京市市辖区,大兴区,116.450342,39.815513
123,A0010015F20,南小街雅迪,大兴区芳园里13号楼1层101室,15801269074,"116.420565,39.792411",二网,8：00-19：00,1,110000,110100,110115,北京市,北京市市辖区,大兴区,116.420565,39.792411
124,A0010015F21,魏善庄雅迪,大兴区魏善庄镇团河中街西三巷东150米 ,18210388656,"116.413526,39.673819",二网,8：00-19：00,1,110000,110100,110115,北京市,北京市市辖区,大兴区,116.413526,39.673819
125,A0010015F22,南大红门雅迪,大兴区青云店镇南大红门小学向南200米路东,18513665159,"116.471535,39.728917",二网,8：00-19：00,1,110000,110100,110115,北京市,北京市市辖区,大兴区,116.471535,39.728917
126,A0010015F23,金荣园雅迪,金星路口北金荣园小区物业楼3号底商,13910827299,"116.386683,39.774127",二网,8：00-19：00,1,110000,110100,110115,北京市,北京市市辖区,大兴区,116.386683,39.774127
127,A0010015F41,杨宋雅迪,怀柔区杨宋镇,13718611232,"116.691446,40.293659",二网,8：00-19：00,1,110000,110100,110116,北京市,北京市市辖区,怀柔区,116.691446,40.293659
128,A0010015G07,桥梓雅迪,桥梓镇怀长路老赵蔬菜水果店东10米,15101165620,"116.584962,40.296505",三网,8：00-19：00,1,110000,110100,110116,北京市,北京市市辖区,怀柔区,116.584962,40.296505
129,A0010015F01,平谷雅迪,平谷区新平东路47号,15910326079,"117.13002,40.144683",二网,8：00-19：00,1,110000,110100,110117,北京市,北京市市辖区,平谷区,117.13002,40.144683
130,A0010015F107,通州雅迪电动车,通州区新华南路,13911695455,"116.66417,39.910715",二网,8：00-19：00,1,110000,110100,110117,北京市,北京市市辖区,平谷区,116.66417,39.910715
131,A0010015F115,顺义后沙峪雅迪,顺义区后沙峪镇华冠建材城西口北底商,18911667202,"116.549437,40.116513",二网,8：00-19：00,1,110000,110100,110117,北京市,北京市市辖区,平谷区,116.549437,40.116513
132,A0010015F108,平谷雅迪,平谷区新平东路62号,15910326079,"117.130468,40.14368",二网,8：00-19：00,1,110000,110100,110118,北京市,北京市市辖区,密云区,117.130468,40.14368
133,A0010015F109,密云雅迪,密云县新南路总店,15001175444,"116.855367,40.376242",二网,8：00-19：00,1,110000,110100,110118,北京市,北京市市辖区,密云区,116.855367,40.376242
134,A0010015F110,北庄镇雅迪,密云县北庄镇,13661090967,"117.187608,40.515194",二网,8：00-19：00,1,110000,110100,110118,北京市,北京市市辖区,密云区,117.187608,40.515194
135,A0010015F111,大城子雅迪,密云县大城子镇,13716367448,"117.116144,40.399329",二网,8：00-19：00,1,110000,110100,110118,北京市,北京市市辖区,密云区,117.116144,40.399329
136,A0010015F40,城区雅迪,延庆绿富隆底商,18910836087,"115.997417,40.469712",二网,8：00-19：00,1,110000,110100,110119,北京市,北京市市辖区,延庆区,115.997417,40.469712
137,A0010015F119,新东郊市场雅迪,朝阳区新东郊市场,18191699209,"108.95309829,34.2777999",二网,8：00-19：00,1,110000,110100,110119,北京市,北京市市辖区,延庆区,108.95309829,34.2777999
138,A0022009F65,唐口雅迪,津塘路10号雅迪专卖,13752728369,"117.027528,39.440061",二网,8：00-19：00,1,120000,120100,120102,天津市,天津市市辖区,河东区,117.027528,39.440061
139,A0022009F08,六纬路雅迪专卖店,万达公馆对面179号雅迪专卖,15922247588,"117.241996,39.11578",二网,8：00-19：00,1,120000,120100,120102,天津市,天津市市辖区,河东区,117.241996,39.11578
140,A0022009F55,河东区真理道雅迪专卖店,天津市河东区王串场一号路华腾里底商8号,15822563392,"117.234293,39.149803",二网,8：00-19：00,1,120000,120100,120102,天津市,天津市市辖区,河东区,117.234293,39.149803
141,A0022009F63,嘉华雅迪,红星路与成林道交口嘉华小区12楼底商,13512272775,"117.251842,39.131367",二网,8：00-19：00,1,120000,120100,120102,天津市,天津市市辖区,河东区,117.251842,39.131367
142,A0022009F53,河西区土城雅迪专卖店,天津市河西区大沽南路882号,13512830303,"117.246115,39.092494",二网,8：00-19：00,1,120000,120100,120103,天津市,天津市市辖区,河西区,117.246115,39.092494
143,A0022009F54,河西区绍兴道雅迪专卖店,天津市河西区绍兴道27号雅迪专卖店,15122762558,"117.224493,39.114412",二网,8：00-19：00,1,120000,120100,120103,天津市,天津市市辖区,河西区,117.224493,39.114412
144,A0022009F67,珠江道雅迪,河西区珠江道名都新园底商雅迪专卖,18602685354,"117.239189,39.070339",二网,8：00-19：00,1,120000,120100,120103,天津市,天津市市辖区,河西区,117.239189,39.070339
145,A0022009F51,南开区密云路一店雅迪专卖店,天津市南开区密云路中国石化加油站对面,18698001198,"177.132788,39.139066",二网,8：00-19：00,1,120000,120100,120104,天津市,天津市市辖区,南开区,177.132788,39.139066
146,A0022009F01,南开五马路雅迪专卖店,南开五马路37号,13612180868,"117.176521,39.136071",二网,8：00-19：00,1,120000,120100,120104,天津市,天津市市辖区,南开区,117.176521,39.136071
147,A0022009F49,南开区王顶堤雅迪专卖店,天津市南开区复康路王顶堤装饰城2楼3号雅迪专卖,15002214871,"117.133407,39.104134",二网,8：00-19：00,1,120000,120100,120104,天津市,天津市市辖区,南开区,117.133407,39.104134
148,A0022009F50,南开区王顶堤桥雅迪专卖店,天津市南开区红旗南路底商408号,13011339705,"117.155672,39.103982",二网,8：00-19：00,1,120000,120100,120104,天津市,天津市市辖区,南开区,117.155672,39.103982
149,A0022009E01,榆关道店雅迪专卖店,河北区榆关道717号雅迪电动车,13642174317,"117.187758,39.183496",一网,8：00-19：00,1,120000,120100,120105,天津市,天津市市辖区,河北区,117.187758,39.183496
150,A0022009E02,榆关道店雅迪专卖店,河北区榆关道717号雅迪电动车 (旗舰店）,13820544442,"117.189896,39.184048",一网,8：00-19：00,1,120000,120100,120105,天津市,天津市市辖区,河北区,117.189896,39.184048
151,A0022009F48,河北区建昌道雅迪专卖店,天津市河北区建昌道41号雅迪专卖,15320061757,"117.230346,39.17999",二网,8：00-19：00,1,120000,120100,120105,天津市,天津市市辖区,河北区,117.230346,39.17999
152,A0022009F20,芥园道雅迪专卖店,芥园道水西园底商7号楼三门101,18142218295,"117.166077,39.152814",二网,8：00-19：00,1,120000,120100,120106,天津市,天津市市辖区,红桥区,117.166077,39.152814
153,A0022009F34,东丽区军粮城新雅迪专卖店,天津市东丽军粮城大街邮局旁雅迪专卖店,13752778939,"117.465277,39.07346",二网,8：00-19：00,1,120000,120100,120110,天津市,天津市市辖区,东丽区,117.465277,39.07346
154,A0022009F35,东丽区华明雅迪专卖店,天津市东丽区华明紫苑29号底商雅迪专卖店,13622109518,"117.393292,39.185127",二网,8：00-19：00,1,120000,120100,120110,天津市,天津市市辖区,东丽区,117.393292,39.185127
155,A0022009F57,河东区万新村雅迪专卖店,天津市东丽区成林道与昆仑交口新丰里1号楼底商雅迪专卖,13821584675,"117.280959,39.1356",二网,8：00-19：00,1,120000,120100,120110,天津市,天津市市辖区,东丽区,117.280959,39.1356
156,A0022009F12,南开区西青道雅迪专卖店,西青区东云里底商雅迪专卖店,13612197762,"117.126679,39.159562",二网,8：00-19：00,1,120000,120100,120111,天津市,天津市市辖区,西青区,117.126679,39.159562
157,A0022009F58,西青区杨柳青雅迪专卖店,天津市西青区杨柳青镇新华道龙华里底商1号,13821286792,"117.026276,39.146671",二网,8：00-19：00,1,120000,120100,120111,天津市,天津市市辖区,西青区,117.026276,39.146671
158,A0022009F59,西青区张家窝雅迪专卖店,天津市西青区张家窝新老路灵泉南里9号楼底商,18622347285,"117.043264,39.068857",二网,8：00-19：00,1,120000,120100,120111,天津市,天津市市辖区,西青区,117.043264,39.068857
159,A0022009F60,西青区津涞路雅迪专卖店,天津市西青区津涞路杨楼镇第七纺织厂院外底商2号,13821313876,"117.1847,39.068439",二网,8：00-19：00,1,120000,120100,120111,天津市,天津市市辖区,西青区,117.1847,39.068439
160,A0022009F06,咸水沽雅迪专卖店,天津市津南区咸水沽食品街雅迪专卖店,13032222081,"117.390865,38.994829",二网,8：00-19：00,1,120000,120100,120112,天津市,天津市市辖区,津南区,117.390865,38.994829
161,A0022009F15,津南北闸口雅迪专卖店,天津市津南区北闸口镇延庆里底商雅迪专卖店,13820838719,"117.41014,38.955102",二网,8：00-19：00,1,120000,120100,120112,天津市,天津市市辖区,津南区,117.41014,38.955102
162,A0022009F46,津南区郭黄庄雅迪专卖店,天津市津南区郭黄庄雅迪专卖店,15222053588,"117.280915,39.042672",二网,8：00-19：00,1,120000,120100,120112,天津市,天津市市辖区,津南区,117.280915,39.042672
163,A0022009F47,津南区葛沽雅迪专卖店,天津市津南区葛沽镇荣水园A区14号楼底商雅迪专卖店,13672036098,"117.506915,38.992983",二网,8：00-19：00,1,120000,120100,120112,天津市,天津市市辖区,津南区,117.506915,38.992983
164,A0022009F04,北辰瑞景雅迪专卖店,天津北辰区瑞景国际鞋城西区19号雅迪专卖店,18222356623,"117.131325,39.208133",二网,8：00-19：00,1,120000,120100,120113,天津市,天津市市辖区,北辰区,117.131325,39.208133
165,A0022009F25,北辰区延吉道雅迪专卖店,天津市北辰区延吉道永辉超市往西150米雅迪专卖,13920600107,"117.134514,39.237524",二网,8：00-19：00,1,120000,120100,120113,天津市,天津市市辖区,北辰区,117.134514,39.237524
166,A0022009F28,北辰区双口雅迪专卖店,天津市北辰区双口镇双口二村十字街南100米,13920400837,"117.042901,39.245665",二网,8：00-19：00,1,120000,120100,120113,天津市,天津市市辖区,北辰区,117.042901,39.245665
167,A0022009F33,武清区大碱厂雅迪专卖店,天津市武清区大碱厂镇华联超市旁,13622053765,"117.099121,39.481526",二网,8：00-19：00,1,120000,120100,120113,天津市,天津市市辖区,北辰区,117.099121,39.481526
168,A0022009F64,双街雅迪店,天津市北辰区双街镇龙顺道170号,13212095004,"117.110373,39.266008",二网,8：00-19：00,1,120000,120100,120113,天津市,天津市市辖区,北辰区,117.110373,39.266008
169,A0022009F10,武清区河北屯雅迪专卖店,天津武清河北屯雅迪专卖店,13821456360,"117.142433,39.586627",二网,8：00-19：00,1,120000,120100,120114,天津市,天津市市辖区,武清区,117.142433,39.586627
170,A0022009F21,武清区大良雅迪专卖店,天津市武清区大良镇雅迪专卖店,13821456360,"117.142312,39.58661",二网,8：00-19：00,1,120000,120100,120114,天津市,天津市市辖区,武清区,117.142312,39.58661
171,A0022009F16,武清区梅厂雅迪专卖店,天津市武清区梅厂镇集贸市场雅迪专卖店,13642035494,"117.204238,39.370197",二网,8：00-19：00,1,120000,120100,120114,天津市,天津市市辖区,武清区,117.204238,39.370197
172,A0022009F03,武清杨村雅迪专卖店,天津市武清区泉州路南门往东100米雅迪专卖店,13512868852,"117.063435,39.380287",二网,8：00-19：00,1,120000,120100,120114,天津市,天津市市辖区,武清区,117.063435,39.380287
173,A0022009F09,武清区河西务雅迪专卖店,天津武清河西务市场雅迪专卖店,15022396688,"116.964165,39.625591",二网,8：00-19：00,1,120000,120100,120114,天津市,天津市市辖区,武清区,116.964165,39.625591
174,A0022009F19,武清石各庄雅迪专卖店,天津市武清区石各庄镇政府北20米雅迪专卖店,15522815058,"116.91162,39.304495",二网,8：00-19：00,1,120000,120100,120114,天津市,天津市市辖区,武清区,116.91162,39.304495
175,A0022009F23,武清区崔黄口雅迪专卖店,天津市武清区催黄口镇大宇车行,13001331483,"117.202866,39.53742",二网,8：00-19：00,1,120000,120100,120114,天津市,天津市市辖区,武清区,117.202866,39.53742
176,A0022009F29,武清区黄花店雅迪专卖店,天津武清区黄花店镇中心街雅迪专卖,15022212199,"116.906992,39.373759",二网,8：00-19：00,1,120000,120100,120114,天津市,天津市市辖区,武清区,116.906992,39.373759
177,A0022009F30,武清区城关店雅迪专卖店,天津市武清区城关医院西100米雅迪专卖,13752374761,"116.879107,39.530417",二网,8：00-19：00,1,120000,120100,120114,天津市,天津市市辖区,武清区,116.879107,39.530417
178,A0022009F31,武清区高村乡雅迪专卖店,天津市武清区高村镇农业银行对面雅迪专卖,13622165688,"116.890109,39.643722",二网,8：00-19：00,1,120000,120100,120114,天津市,天津市市辖区,武清区,116.890109,39.643722
179,A0022009F32,武清区太子务雅迪专卖店,天津市武清区泗村镇太子务村中心街雅迪专卖,13752779539,"116.919814,39.460184",二网,8：00-19：00,1,120000,120100,120114,天津市,天津市市辖区,武清区,116.919814,39.460184
180,A0022009F68,曹子里雅迪,武清区曹子里镇花都商业街41号雅迪专卖,13920826170,"117.137201,39.421158",二网,8：00-19：00,1,120000,120100,120114,天津市,天津市市辖区,武清区,117.137201,39.421158
181,A0022009F66,宝坻雅迪新店,海滨街道进京路中国银行对面雅迪专卖店,18920098373,"117.379432,39.683987",二网,8：00-19：00,1,120000,120100,120115,天津市,天津市市辖区,宝坻区,117.379432,39.683987
182,A0022022G10,宝坻县城雅迪专卖店,进京路百货大楼西200米,18322013366,"117.309226,39.729361",三网,8：00-19：00,1,120000,120100,120115,天津市,天津市市辖区,宝坻区,117.309226,39.729361
183,A0022022G04,宝坻霍格庄雅迪专卖店,霍各庄镇平安家园对面雅迪专卖店,18322234222,"117.383011,39.755302",三网,8：00-19：00,1,120000,120100,120115,天津市,天津市市辖区,宝坻区,117.383011,39.755302
184,A0022022G05,宝坻口东雅迪专卖店,口东镇农业银行旁雅迪专卖店,13821466266,"117.379433,39.683826",三网,8：00-19：00,1,120000,120100,120115,天津市,天津市市辖区,宝坻区,117.379433,39.683826
185,A0022022G06,宝坻王卜庄雅迪专卖店,王卜庄镇中国石化加油站旁雅迪专卖店,15022676809,"117.455583,39.693047",三网,8：00-19：00,1,120000,120100,120115,天津市,天津市市辖区,宝坻区,117.455583,39.693047
186,A0022022G09,宝坻赵各庄雅迪专卖店,赵各庄乡农业银行东200米雅迪专卖店,13730371993,"117.210811,39.796582",三网,8：00-19：00,1,120000,120100,120115,天津市,天津市市辖区,宝坻区,117.210811,39.796582
187,A0022022G11,宝坻黑狼口雅迪专卖店,黑狼口农贸市场对面雅迪专卖店,15620855660,"117.416178,39.624108",三网,8：00-19：00,1,120000,120100,120115,天津市,天津市市辖区,宝坻区,117.416178,39.624108
188,A0022022G16,宝坻八门城雅迪专卖店,八门城镇八门城中学南300米雅迪专卖店,13072294541,"117.611887,39.58407",三网,8：00-19：00,1,120000,120100,120115,天津市,天津市市辖区,宝坻区,117.611887,39.58407
189,A0022022G26,大口屯,天津市宝坻区大口屯镇北商业街48号,13164033723,"117.248681,39596204",三网,8：00-19：00,1,120000,120100,120115,天津市,天津市市辖区,宝坻区,117.248681,39596204
190,A0022009F05,汉沽雅迪专卖店,天津市宁河县汉沽管理区正通花园雅迪专卖店,13920521081,"117.899656,39.372718",二网,8：00-19：00,1,120000,120100,120116,天津市,天津市市辖区,滨海新区,117.899656,39.372718
191,A0022009F11,滨海新区中塘雅迪专卖店,天津市滨海新区中塘镇张港子路口雅迪专卖店,18622821722,"117.414587,38.863289",二网,8：00-19：00,1,120000,120100,120116,天津市,天津市市辖区,滨海新区,117.414587,38.863289
192,A0022009F14,汉沽文化街雅迪专卖店,天津市汉沽区汉华世家底商158号雅迪专卖店,18102022068,"117.811348,39.259851",二网,8：00-19：00,1,120000,120100,120116,天津市,天津市市辖区,滨海新区,117.811348,39.259851
193,A0022009F41,大港三号院雅迪专卖店,天津市大港三号院光明大道花园市场,13820193006,"117.506394,38.737135",二网,8：00-19：00,1,120000,120100,120116,天津市,天津市市辖区,滨海新区,117.506394,38.737135
194,A0022009F42,大港太平镇雅迪专卖店,天津市大港太平镇邮局对面雅迪专卖店,13132097950,"117.342552,38.623468",二网,8：00-19：00,1,120000,120100,120116,天津市,天津市市辖区,滨海新区,117.342552,38.623468
195,A0022009F43,大港旭日路雅迪专卖店,天津市大港旭日路晨辉北里底商雅迪专卖店,13920507931,"117.471611,38.85627",二网,8：00-19：00,1,120000,120100,120116,天津市,天津市市辖区,滨海新区,117.471611,38.85627
196,A0022009F45,塘沽向阳雅迪专卖店,天津市塘沽向阳西支路雅迪专卖店,15302186900,"117.669469,39.032013",二网,8：00-19：00,1,120000,120100,120116,天津市,天津市市辖区,滨海新区,117.669469,39.032013
197,A0022022G21,宁河丰台雅迪专卖店,天津宁河区丰台镇东大街东80米,15922097052,"117.765975,39.566852",三网,8：00-19：00,1,120000,120100,120117,天津市,天津市市辖区,宁河区,117.765975,39.566852
198,A0022022G23,宁河赵本雅迪专卖店,天津宁河区赵本家乐对面,13602193640,"117.657399,39.472867",三网,8：00-19：00,1,120000,120100,120117,天津市,天津市市辖区,宁河区,117.657399,39.472867
199,A0022009F22,宁河马聪雅迪专卖店,宁河马聪店,15900247528,"117.683256,39.365477",二网,8：00-19：00,1,120000,120100,120117,天津市,天津市市辖区,宁河区,117.683256,39.365477
200,A0022009F44,宁河雅迪专卖店,宁河芦台商业道交警队对面,13102203188,"117.837392,39.339831",二网,8：00-19：00,1,120000,120100,120117,天津市,天津市市辖区,宁河区,117.837392,39.339831
201,A0022022G18,宁河大北镇雅迪专卖店,天津宁河区大北涧小学对面,15522998384,"117.746355,39.338199",三网,8：00-19：00,1,120000,120100,120117,天津市,天津市市辖区,宁河区,117.746355,39.338199
202,A0022022G19,宁河江娃口雅迪专卖店,天津宁河区江洼口宝卢公路市场,15822343029,"117.728595,39.524113",三网,8：00-19：00,1,120000,120100,120117,天津市,天津市市辖区,宁河区,117.728595,39.524113
203,A0022022G20,宁河岳龙镇雅迪专卖店,天津宁河区岳龙农贸市场口,15833253602,"117.873683,39.578153",三网,8：00-19：00,1,120000,120100,120117,天津市,天津市市辖区,宁河区,117.873683,39.578153
204,A0022022G22,宁河大王台雅迪专卖店,天津宁河区大王台村市场口,18622179320,"117.500719,39.280913",三网,8：00-19：00,1,120000,120100,120117,天津市,天津市市辖区,宁河区,117.500719,39.280913
205,A0022022G24,宁河板桥雅迪专卖店,天津宁河区板桥集市中段,15620816318,"117.816495,39.491055",三网,8：00-19：00,1,120000,120100,120117,天津市,天津市市辖区,宁河区,117.816495,39.491055
206,A0022022G25,宁河北淮店雅迪专卖店,天津宁河去北淮店农行西,13820466026,"117.575921,39.266054",三网,8：00-19：00,1,120000,120100,120117,天津市,天津市市辖区,宁河区,117.575921,39.266054
207,A0022009F18,静海大邱庄雅迪专卖店,天津市静海县大邱庄雅迪专卖店,13299999415,"117.077118,38.840011",二网,8：00-19：00,1,120000,120100,120118,天津市,天津市市辖区,静海区,117.077118,38.840011
208,A0022009F36,静海子牙雅迪专卖店,天津市静海县子牙商品街宗保村路口雅迪专卖店,13821044333,"116.774046,38.830642",二网,8：00-19：00,1,120000,120100,120118,天津市,天津市市辖区,静海区,116.774046,38.830642
209,A0022009F39,静海独流雅迪专卖店,天津市静海县独流红街购物旁雅迪专卖店,15722028013,"116.927846,39.027406",二网,8：00-19：00,1,120000,120100,120118,天津市,天津市市辖区,静海区,116.927846,39.027406
210,A0022022G01,四正街雅迪专卖店中段,蓟县四正街中段,13820988530,"117.419893,40.04416",三网,8：00-19：00,1,120000,120100,120225,天津市,天津市市辖区,蓟县,117.419893,40.04416
211,A0022022G07,蓟县别山雅迪专卖店,蓟县别山镇大市场西200米雅迪专卖店,13820988530,"117.511271,39.961411",三网,8：00-19：00,1,120000,120100,120225,天津市,天津市市辖区,蓟县,117.511271,39.961411
212,A0022009F02,四正街雅迪专卖店北段,蓟县四正街北段,15222611161,"117.420035,40.043144",二网,8：00-19：00,1,120000,120100,120225,天津市,天津市市辖区,蓟县,117.420035,40.043144
213,A0022022G02,蓟县上仓雅迪专卖店,天津蓟县上仓雅迪专卖,13820712566,"117.420083,40.044152",三网,8：00-19：00,1,120000,120100,120225,天津市,天津市市辖区,蓟县,117.420083,40.044152
214,A0022022G12,名字蓟县管庄雅迪专卖店,管庄镇大集北段雅迪专卖店,13032200118,"117.336768,40.037282",三网,8：00-19：00,1,120000,120100,120225,天津市,天津市市辖区,蓟县,117.336768,40.037282
215,A0022022G14,蓟县尤古庄雅迪专卖店,尤古庄大街邮局对面雅迪专卖店,13512247959,"117.258386,39.915339",三网,8：00-19：00,1,120000,120100,120225,天津市,天津市市辖区,蓟县,117.258386,39.915339
216,A0022009F69,小孙格庄雅迪,蓟县邦均镇小孙格庄村雅迪专卖,13114872262,"117.327542,40.022338",二网,8：00-19：00,1,120000,120100,120225,天津市,天津市市辖区,蓟县,117.327542,40.022338
217,A0022009F70,翠屏山雅迪,蓟县翠屏山大街雅迪专卖,18522360716,"117.432338,40.004003",二网,8：00-19：00,1,120000,120100,120225,天津市,天津市市辖区,蓟县,117.432338,40.004003
218,A0022022G03,蓟县穿房峪雅迪专卖店,蓟县穿芳欲镇小辛庄雅迪专卖,13102280777,"117.552031,40.086637",三网,8：00-19：00,1,120000,120100,120225,天津市,天津市市辖区,蓟县,117.552031,40.086637
219,A0022022G08,蓟县东施古雅迪专卖店,蓟县东施古卫生院对面雅迪专卖店,13116120183,"117.337852,39.892453",三网,8：00-19：00,1,120000,120100,120225,天津市,天津市市辖区,蓟县,117.337852,39.892453
220,A0022022G13,蓟县马申桥雅迪专卖店,蓟县马申桥镇天马北200米雅迪专卖店,18622439726,"117.612292,40.094025",三网,8：00-19：00,1,120000,120100,120225,天津市,天津市市辖区,蓟县,117.612292,40.094025
221,A0022022G15,蓟县候家营雅迪专卖店,侯家营大市场南300米雅迪专卖店,13820194992,"117.420156,40.044279",三网,8：00-19：00,1,120000,120100,120225,天津市,天津市市辖区,蓟县,117.420156,40.044279
222,A0311067F06,天山大街黄河大雅迪专卖店,天山大街黄河大道交口南行200米,15131169239,"114.586975,38.031068",二网,8：00-19：00,1,130000,130100,130101,河北省,石家庄市,,114.586975,38.031068
224,A0311019F07,长安区董家庄雅迪专卖店,董家庄南路口,13331365313,"114.654668,38.081103",二网,8：00-19：00,1,130000,130100,130102,河北省,石家庄市,长安区,114.654668,38.081103
225,A0311067E02,棉六雅迪专卖店,胜利北街运河桥下,18033795020,"114.521322,38.08553",一网,8：00-19：00,1,130000,130100,130102,河北省,石家庄市,长安区,114.521322,38.08553
226,A0311067F05,谈固大街裕华路雅迪专卖店,谈固大街裕华路交口,17732303290,"114.571209,38.043125",二网,8：00-19：00,1,130000,130100,130102,河北省,石家庄市,长安区,114.571209,38.043125
227,A0311067E03,中山东路雅迪专卖店,中山东路482-7省测绘局对面,15131677115,"114.559055,38.048617",一网,8：00-19：00,1,130000,130100,130102,河北省,石家庄市,长安区,114.559055,38.048617
232,A0311067E01,槐安雅迪专卖店,槐安东路1号华夏电动车市场,15831157199,"114.501681,38.029512",一网,8：00-19：00,1,130000,130100,130104,河北省,石家庄市,桥西区,114.501681,38.029512
233,A0311067F03,中华南大街雅迪专卖店,中华南大街253号,15831157299,"114.484334,38.038415",二网,8：00-19：00,1,130000,130100,130104,河北省,石家庄市,桥西区,114.484334,38.038415
234,A0311067F04,桥西区开泰街雅迪专卖店,桥西区开泰街,13832379538,"114.571874,38.060302",二网,8：00-19：00,1,130000,130100,130104,河北省,石家庄市,桥西区,114.571874,38.060302
235,A0311067F07,西二环与槐安雅迪专卖店,西二环与槐安路交口西行200米路北,13223411565,"114.438647,38.030975",二网,8：00-19：00,1,130000,130100,130104,河北省,石家庄市,桥西区,114.438647,38.030975
240,A0311067F02,中华大街雅迪专卖店,中华大街中储市场对面,13933022311,"114.483966,38.075095",二网,8：00-19：00,1,130000,130100,130105,河北省,石家庄市,新华区,114.483966,38.075095
241,A0311067E08,和平西路雅迪专卖店,和平西路135号-12和平家园底商,15831948866,"114.493888,38.064872",一网,8：00-19：00,1,130000,130100,130105,河北省,石家庄市,新华区,114.493888,38.064872
244,A0311019F01,井陉矿雅迪专卖店,矿市街中段,18032487096,"114.076995,38.074689",二网,8：00-19：00,1,130000,130100,130107,河北省,石家庄市,井陉矿区,114.076995,38.074689
245,A0311019F08,井陉上安雅迪专卖店,北坡雅迪,15231148925,"114.220649,38.066851",二网,8：00-19：00,1,130000,130100,130107,河北省,石家庄市,井陉矿区,114.220649,38.066851
248,A0311019E01,裕华区方村服务站,石家庄裕华区方村摩托城内,031185492331,"114.560519,37.987095",一网,8：00-19：00,1,130000,130100,130108,河北省,石家庄市,裕华区,114.560519,37.987095
249,A0311067F01,裕华区雅迪专卖店,裕华区怀特综合门市区167号雅迪电动车,15931196971,"114.614878,38.032419",二网,8：00-19：00,1,130000,130100,130108,河北省,石家庄市,裕华区,114.614878,38.032419
250,A0311067E04,育才街与槐岭路服务站,育才街与槐岭路交口,15931196971,"114.528968,38.024776",一网,8：00-19：00,1,130000,130100,130108,河北省,石家庄市,裕华区,114.528968,38.024776
254,A0311023F08,南董雅迪专卖店,南董西口路北,13230139416,"114.773768,38.106692",二网,8：00-19：00,1,130000,130100,130109,河北省,石家庄市,藁城区,114.773768,38.106692
255,A0311039E01,藁城雅迪专卖店,胜利西路046号,031188128011,"114.855716,38.036635",一网,8：00-19：00,1,130000,130100,130109,河北省,石家庄市,藁城区,114.855716,38.036635
256,A0311039F01,只甲胜利雅迪专卖店,只甲十字路口路东,13832372661,"114.748638,38.160272",二网,8：00-19：00,1,130000,130100,130109,河北省,石家庄市,藁城区,114.748638,38.160272
257,A0311039F02,岗上雅迪专卖店,岗上镇富强大街021号,18031180400,"114.70207,38.050559",二网,8：00-19：00,1,130000,130100,130109,河北省,石家庄市,藁城区,114.70207,38.050559
258,A0311039F03,贾市庄雅迪专卖店,昌盛街035号,15630112638,"114.951152,37.883629",二网,8：00-19：00,1,130000,130100,130109,河北省,石家庄市,藁城区,114.951152,37.883629
259,A0311050F02,国际小商品雅迪专卖店,正定东杨庄路口雅迪,13785169644,"114.685455,38.2604",二网,8：00-19：00,1,130000,130100,130109,河北省,石家庄市,藁城区,114.685455,38.2604
260,A0311039E02,胜利西路雅迪服务站,河北省藁城市胜利西路雅迪服务站,13833137243,"114.84506,38.03181",一网,8：00-19：00,1,130000,130100,130109,河北省,石家庄市,藁城区,114.84506,38.03181
268,A0311031E01,鹿泉市雅迪专卖店,河北省石家庄市鹿泉市劳动人才市场,13803365037,"120.502973,31.585385",一网,8：00-19：00,1,130000,130100,130110,河北省,石家庄市,鹿泉区,120.502973,31.585385
269,A0311031F01,李村镇东头雅迪专卖店,李村镇东头,15632188212,"120.503036,31.5854",二网,8：00-19：00,1,130000,130100,130110,河北省,石家庄市,鹿泉区,120.503036,31.5854
272,A0311021E01,新开南街雅迪专卖店,栾城县新开南街70号,15081441395,"114.656261,37.882528",一网,8：00-19：00,1,130000,130100,130111,河北省,石家庄市,栾城区,114.656261,37.882528
274,A0311019F02,井陉天长雅迪专卖店,城关中街,13180073496,"114.035051,38.007648",二网,8：00-19：00,1,130000,130100,130121,河北省,石家庄市,井陉县,114.035051,38.007648
275,A0311019F03,井陉小作雅迪专卖店,小作西口,13473995134,"114.041166,38.122056",二网,8：00-19：00,1,130000,130100,130121,河北省,石家庄市,井陉县,114.041166,38.122056
276,A0311019F04,井陉南障城雅迪专卖店,路口西行50米,13831141529,"114.089886,37.917151",二网,8：00-19：00,1,130000,130100,130121,河北省,石家庄市,井陉县,114.089886,37.917151
277,A0311019F05,井陉良都雅迪专卖店,良都中石化加油站对面,13603217524,"114.18209,37.997501",二网,8：00-19：00,1,130000,130100,130121,河北省,石家庄市,井陉县,114.18209,37.997501
278,A0311019F06,井陉县城微水雅迪专卖店,微水大队对面,13931846958,"114.147898,38.041963",二网,8：00-19：00,1,130000,130100,130121,河北省,石家庄市,井陉县,114.147898,38.041963
284,A0311050E01,商城大街雅迪专卖店,家庄市正定县燕赵大街124号,13831139991,"114.57163,38.144714",一网,8：00-19：00,1,130000,130100,130123,河北省,石家庄市,正定县,114.57163,38.144714
285,A0311050E02,燕赵南街雅迪专卖店,正定国际小商品市场北门区,13831139991,"114.556902,38.162064",一网,8：00-19：00,1,130000,130100,130123,河北省,石家庄市,正定县,114.556902,38.162064
288,A0311051E01,龙州镇香港雅迪专卖店,河北省石家庄市行唐县龙州镇香港路,15373987488,"114.563646,38.438028",一网,8：00-19：00,1,130000,130100,130125,河北省,石家庄市,行唐县,114.563646,38.438028
289,A0311051F01,安香乡雅迪专卖店,行唐县安香乡信用社南行100米路东,13932163405,"114.556895,38.385643",二网,8：00-19：00,1,130000,130100,130125,河北省,石家庄市,行唐县,114.556895,38.385643
292,A0311038E01,市灵寿雅迪专卖店,市灵寿县汽车东站142号（永胜车行,18032225888,"114.390731,38.309043",一网,8：00-19：00,1,130000,130100,130126,河北省,石家庄市,灵寿县,114.390731,38.309043
294,A0311026E01,府前东路雅迪专卖店,石家庄深泽县府前东路路南,18553117002,"115.21484,38.186902",一网,8：00-19：00,1,130000,130100,130128,河北省,石家庄市,深泽县,115.21484,38.186902
296,A0311062E01,赞皇雅迪雅迪专卖店,新开街与槐泉西路交叉口东南150米,13784392017,"114.396345,37.670008",一网,8：00-19：00,1,130000,130100,130129,河北省,石家庄市,赞皇县,114.396345,37.670008
298,A0311023E01,无极县雅迪专卖店,无极西路32号,13582815258,"114.976881,38.183422",一网,8：00-19：00,1,130000,130100,130130,河北省,石家庄市,无极县,114.976881,38.183422
299,A0311023F01,陈村雅迪专卖店,陈村北口路东,13081099191,"114.885086,38.092392",二网,8：00-19：00,1,130000,130100,130130,河北省,石家庄市,无极县,114.885086,38.092392
300,A0311023F02,马桥雅迪专卖店,马桥南口路东,18332316696,"114.840876,38.227498",二网,8：00-19：00,1,130000,130100,130130,河北省,石家庄市,无极县,114.840876,38.227498
301,A0311023F03,高头雅迪专卖店,高头北口路西,13931131410,"114.884945,38.14039",二网,8：00-19：00,1,130000,130100,130130,河北省,石家庄市,无极县,114.884945,38.14039
302,A0311023F04,郭庄雅迪专卖店,郭庄村北路西,15931173671,"114.878691,38.225277",二网,8：00-19：00,1,130000,130100,130130,河北省,石家庄市,无极县,114.878691,38.225277
303,A0311023F05,东门雅迪专卖店,东门集口南200米路东,18632196135,"114.929787,38.101541",二网,8：00-19：00,1,130000,130100,130130,河北省,石家庄市,无极县,114.929787,38.101541
304,A0311023F06,里城道雅迪专卖店,里城道中学东路北,15081818709,"114.942937,38.246044",二网,8：00-19：00,1,130000,130100,130130,河北省,石家庄市,无极县,114.942937,38.246044
305,A0311023F07,前北焦雅迪专卖店,前北焦村北路西,13932144718,"114.875114,38.187035",二网,8：00-19：00,1,130000,130100,130130,河北省,石家庄市,无极县,114.875114,38.187035
306,A0311023F09,东庄雅迪专卖店,东庄红绿灯西50米路北,13930144904,"114.836137,380167304",二网,8：00-19：00,1,130000,130100,130130,河北省,石家庄市,无极县,114.836137,380167304
307,A0311023F10,郝庄雅迪专卖店,郝庄南口路西,13633310645,"114.846738,38.085119",二网,8：00-19：00,1,130000,130100,130130,河北省,石家庄市,无极县,114.846738,38.085119
318,A0311059E01,平山县雅迪专卖店,中山东路商城西南门,18931189729,"114.211019,38.263022",一网,8：00-19：00,1,130000,130100,130131,河北省,石家庄市,平山县,114.211019,38.263022
319,A0311059F01,南甸镇雅迪专卖店,平山县南甸镇国军车行,13111504689,"114.128463,38.392266",二网,8：00-19：00,1,130000,130100,130131,河北省,石家庄市,平山县,114.128463,38.392266
322,A0311035E01,元氏县雅迪专卖店,元氏县蟠龙路56号,031184632989,"114.545089,37.76322",一网,8：00-19：00,1,130000,130100,130132,河北省,石家庄市,元氏县,114.545089,37.76322
323,A0311035F01,南佐雅迪专卖店,南佐镇汽车站南邻,031184591622,"114.370319,37.845389",二网,8：00-19：00,1,130000,130100,130132,河北省,石家庄市,元氏县,114.370319,37.845389
324,A0311035F02,姬村雅迪专卖店,姬村镇信用社西侧,15830413251,"114.412638,37.877018",二网,8：00-19：00,1,130000,130100,130132,河北省,石家庄市,元氏县,114.412638,37.877018
325,A0311035F03,因村雅迪专卖店,因村镇邮政银行西,15933019732,"114.482141,37.851115",二网,8：00-19：00,1,130000,130100,130132,河北省,石家庄市,元氏县,114.482141,37.851115
326,A0311035E02,元氏县蟠龙路雅迪服务站,元氏县蟠龙路雅迪服务站,18133831123,"114.535706,37.758648",一网,8：00-19：00,1,130000,130100,130132,河北省,石家庄市,元氏县,114.535706,37.758648
332,A0311037E01,贡院街雅迪专卖店,河北省石家庄市赵县石桥大街75号雅迪专卖店（贡院街中段）,13784328183,"114.781487,37.755046",一网,8：00-19：00,1,130000,130100,130133,河北省,石家庄市,赵县,114.781487,37.755046
333,A0311037F01,王西章雅迪专卖店,赵县308国道王西章村口东行200米路北（原王西章收费站北临）,13513210721,"114.832068,37.705271",二网,8：00-19：00,1,130000,130100,130133,河北省,石家庄市,赵县,114.832068,37.705271
334,A0311037F02,双庙北口雅迪专卖店,赵县双庙镇十字路口处雅迪专卖店,13171808939,"114.788199,37.845612",二网,8：00-19：00,1,130000,130100,130133,河北省,石家庄市,赵县,114.788199,37.845612
335,A0311037F03,各子雅雅迪专卖店,各子镇中心街道南雅迪专卖店,13785197291,"114.890626,37.838436",二网,8：00-19：00,1,130000,130100,130133,河北省,石家庄市,赵县,114.890626,37.838436
336,A0311040E01,石家庄赵县雅迪专卖店,商城大街雅迪电动车,18031187666,"114.96494,37.77155",一网,8：00-19：00,1,130000,130100,130133,河北省,石家庄市,赵县,114.96494,37.77155
342,A0311058E01,金街不夜城北头雅迪专卖店,辛集市金街不夜城北头,18232133199,"115.222807,37.927975",一网,8：00-19：00,1,130000,130100,130181,河北省,石家庄市,辛集市,115.222807,37.927975
343,A0311058E02,金街中段路西雅迪专卖店,金街城北头雅迪专卖店2店,18232133199,"115.222178,37.926534",一网,8：00-19：00,1,130000,130100,130181,河北省,石家庄市,辛集市,115.222178,37.926534
344,A0311058F01,旧城桥北粮雅迪专卖店,旧城桥北粮城对面雅迪店,15230182788,"115.40207,38.017414",二网,8：00-19：00,1,130000,130100,130181,河北省,石家庄市,辛集市,115.40207,38.017414
345,A0311058F02,大士庄集市口路雅迪专卖店,大士庄集市口路南,17732178595,"115.299982,37.924244",二网,8：00-19：00,1,130000,130100,130181,河北省,石家庄市,辛集市,115.299982,37.924244
346,A0311058F03,新城镇北街村雅迪专卖店,辛集市新城镇北街村委会门口国英车行,15613125686,"115.320289,37.861372",二网,8：00-19：00,1,130000,130100,130181,河北省,石家庄市,辛集市,115.320289,37.861372
347,A0311058F04,张古庄西口路东雅迪专卖店,辛集市张古庄西口路东,15333238389,"115.292343,38.064928",二网,8：00-19：00,1,130000,130100,130181,河北省,石家庄市,辛集市,115.292343,38.064928
348,A0311058F05,王口村北路西雅迪专卖店,王口村北路西科尔家电,15176853175,"115.294984,37.669118",二网,8：00-19：00,1,130000,130100,130181,河北省,石家庄市,辛集市,115.294984,37.669118
349,A0311058F06,果园村北路东雅迪专卖店,果园村北路东,13473413605,"115.355417,38.018845",二网,8：00-19：00,1,130000,130100,130181,河北省,石家庄市,辛集市,115.355417,38.018845
350,A0311058F07,智邱集市中心雅迪专卖店,智邱集市中心东源商场,18603288528,"115.247203,37.76006",二网,8：00-19：00,1,130000,130100,130181,河北省,石家庄市,辛集市,115.247203,37.76006
351,A0311058F08,木丘礼堂北雅迪专卖店,木丘礼堂北行100米林枫车业,15369358905,"115.174807,37.842309",二网,8：00-19：00,1,130000,130100,130181,河北省,石家庄市,辛集市,115.174807,37.842309
362,A0311002E01,晋州市车站街专卖店,晋州市光明路27号,13081074828,"115.040594,38.030338",一网,8：00-18：00,1,130000,130100,130183,河北省,石家庄市,晋州市,115.040594,38.030338
363,A0311002E02,晋州雅迪1店专卖店,晋州市新世纪商城电动车一条街西口,13081089365,"115.068626,38.027889",一网,8：00-18：00,1,130000,130100,130183,河北省,石家庄市,晋州市,115.068626,38.027889
364,A0311002F01,东卓宿镇中心雅迪专卖店,晋州市东卓宿镇中心街,13832327112,"115.155869,38.021785",二网,8：00-18：00,1,130000,130100,130183,河北省,石家庄市,晋州市,115.155869,38.021785
365,A0311002F02,营里村雅迪专卖店,晋州市小尚村汽车站南邻,13014358599,"115.078505,37.82534",二网,8：00-18：00,1,130000,130100,130183,河北省,石家庄市,晋州市,115.078505,37.82534
366,A0311002F03,马于雅迪专卖店,晋州市马于镇温泉圣地对过,13582104841,"115.135766,37.985114",二网,8：00-18：00,1,130000,130100,130183,河北省,石家庄市,晋州市,115.135766,37.985114
367,A0311002F04,总十庄雅迪专卖店,晋州市总十庄镇医院东临,13722871811,"115.075006,37.867472",二网,8：00-18：00,1,130000,130100,130183,河北省,石家庄市,晋州市,115.075006,37.867472
368,A0311002F05,田村雅迪专卖店,晋州市田村镇烈士塔对面,18633012614,"115.170814,38.127385",二网,8：00-18：00,1,130000,130100,130183,河北省,石家庄市,晋州市,115.170814,38.127385
369,A0311002F06,小樵雅迪专卖店,晋州市小樵镇三岔路口,13131108078,"115.146516,38.077245",二网,8：00-18：00,1,130000,130100,130183,河北省,石家庄市,晋州市,115.146516,38.077245
370,A0311002F07,苏家庄雅迪专卖店,宁晋县苏家庄派出所北临,13081049085,"115.105612,37.760705",二网,8：00-18：00,1,130000,130100,130183,河北省,石家庄市,晋州市,115.105612,37.760705
371,A0311002F08,河头雅迪专卖店,晋州市河头村村北,13833136315,"115.118702,37.885971",二网,8：00-18：00,1,130000,130100,130183,河北省,石家庄市,晋州市,115.118702,37.885971
372,A0311002F09,周头雅迪专卖店,晋州市周头镇南口,13473880077,"115.016467,37.913882",二网,8：00-18：00,1,130000,130100,130183,河北省,石家庄市,晋州市,115.016467,37.913882
373,A0311002F10,滨河街雅迪专卖店,晋州市晋州镇滨河路与新华街交叉口,31185121125,"115.030016,38.029546",二网,8：00-18：00,1,130000,130100,130183,河北省,石家庄市,晋州市,115.030016,38.029546
374,A0311002F11,武丘雅迪专卖店,晋州市武邱村西口,13014358599,"115.020506,37.865762",二网,8：00-18：00,1,130000,130100,130183,河北省,石家庄市,晋州市,115.020506,37.865762
375,A0311002F12,深泽县堤北村雅迪专卖店,深泽县堤北村东口,17732300466,"115.108442,38.148462",二网,8：00-18：00,1,130000,130100,130183,河北省,石家庄市,晋州市,115.108442,38.148462
376,A0311002F13,深泽县赵八村雅迪专卖店,深泽县赵八村东口,18932922982,"115.030122,38.029635",二网,8：00-18：00,1,130000,130100,130183,河北省,石家庄市,晋州市,115.030122,38.029635
377,A0311002F14,深泽县小丰村雅迪专卖店,深泽县小丰村东口,13673114618,"115.030049,38.029551",二网,8：00-18：00,1,130000,130100,130183,河北省,石家庄市,晋州市,115.030049,38.029551
378,A0311002F15,东里庄雅迪专卖店,晋州市东里庄镇东奥小区对过,13630821427,"115.086371,37.942724",二网,8：00-18：00,1,130000,130100,130183,河北省,石家庄市,晋州市,115.086371,37.942724
379,A0311002F16,北白滩雅迪专卖店,晋州市北白滩村南口,15533929701,"115.030048,38.029552",二网,8：00-18：00,1,130000,130100,130183,河北省,石家庄市,晋州市,115.030048,38.029552
380,A0311002F17,祁底雅迪专卖店,晋州市祁底镇桥南200米路西,13012157946,"115.030062,38.029517",二网,8：00-18：00,1,130000,130100,130183,河北省,石家庄市,晋州市,115.030062,38.029517
381,A0311002F18,赵兰庄雅迪专卖店,晋州市赵兰庄村西,13363878090,"115.081759,38.114732",二网,8：00-18：00,1,130000,130100,130183,河北省,石家庄市,晋州市,115.081759,38.114732
382,A0311002F19,里庄雅迪专卖店,藁城市里庄村北口,18603211946,"114.96301,37.963898",二网,8：00-18：00,1,130000,130100,130183,河北省,石家庄市,晋州市,114.96301,37.963898
383,A0311002F20,马于镇吕家庄雅迪专卖店,晋州市马于镇吕家庄村西口,13582104841,"115.160356,37.978422",二网,8：00-18：00,1,130000,130100,130183,河北省,石家庄市,晋州市,115.160356,37.978422
384,A0311002E03,石家庄晋州市光明路服务站,石家庄晋州市光明路27号服务站,15531116901,"115.032521,38.022141",一网,8：00-19：00,1,130000,130100,130183,河北省,石家庄市,晋州市,115.032521,38.022141
408,A0311033E01,鲜虞街路西雅迪专卖店,新乐市鲜虞街与新开路交叉口西南50米,031188588800,"115.942377,39.807171",一网,8：00-19：00,1,130000,130100,130184,河北省,石家庄市,新乐市,115.942377,39.807171
409,A0311033F01,承安铺107雅迪专卖店,承安铺火车站西,78032178711,"114.803676,38.410105",二网,8：00-19：00,1,130000,130100,130184,河北省,石家庄市,新乐市,114.803676,38.410105
410,A0311033F02,邯邰无极路口雅迪专卖店,邯邰镇无极路口东北角,15930178993,"114.855318,38.324867",二网,8：00-19：00,1,130000,130100,130184,河北省,石家庄市,新乐市,114.855318,38.324867
411,A0311033F05,车固雅迪专卖店,车固集贸市场东门,15131107918,"114.719313,38.496479",二网,8：00-19：00,1,130000,130100,130184,河北省,石家庄市,新乐市,114.719313,38.496479
412,A0311033F07,累头村雅迪专卖店,累头村东头,13832384153,"114.892262,38.390046",二网,8：00-19：00,1,130000,130100,130184,河北省,石家庄市,新乐市,114.892262,38.390046
418,A0315013F07,唐山路南西电路雅迪,唐山市西电路西电路144号 ,13315536213,"118.143669,39.615135",二网,8：00-19：00,1,130000,130200,130202,河北省,唐山市,路南区,118.143669,39.615135
419,A0315013E04,路北区庆南道35中对面雅迪,路北区庆南道35中对面,13784103753,"118.208316,39.697131",一网,8：00-19：00,1,130000,130200,130203,河北省,唐山市,路北区,118.208316,39.697131
420,A0315013E07,庆南道35中雅迪,路北区庆南道35中斜对过,13784103753,"118.208218,39.697152",一网,8：00-19：00,1,130000,130200,130203,河北省,唐山市,路北区,118.208218,39.697152
421,A0315013E03,路北区复兴路雅迪,路北区复兴路213号,13383153191,"118.217134,39.626541",一网,8：00-19：00,1,130000,130200,130203,河北省,唐山市,路北区,118.217134,39.626541
422,A0315013E06,唐山市路北区复兴路雅迪,唐山市路北区复兴路213（旗舰店）,18332917781,"118.208592,39.696965",一网,8：00-19：00,1,130000,130200,130203,河北省,唐山市,路北区,118.208592,39.696965
423,A0315013F08,古冶林西雅迪,唐山市古冶区林西街头雅迪专卖店,15633333911,"118.421885,39.733741",二网,8：00-19：00,1,130000,130200,130204,河北省,唐山市,古冶区,118.421885,39.733741
424,A0315013E09,洼里镇商业街205国道路南雅迪,洼里镇商业街205国道路南,13784103753,"118.339662,39.699225",一网,8：00-19：00,1,130000,130200,130205,河北省,唐山市,开平区,118.339662,39.699225
425,A0315013F10,开平1店雅迪,唐山市开平区电动车街道雅迪专卖六农场唐海线曾福园附近,18713816432,"118.42342,39.385592",二网,8：00-19：00,1,130000,130200,130205,河北省,唐山市,开平区,118.42342,39.385592
426,A0315013E01,丰南区黄各庄黄各庄雅迪,丰南区黄各庄黄各庄雅迪电动车,13784103753,"118.147426,39.489149",一网,8：00-19：00,1,130000,130200,130207,河北省,唐山市,丰南区,118.147426,39.489149
427,A0315013E02,路北区鹭港镇鹭港店雅迪,路北区鹭港镇鹭港店雅迪电动车,13784103753,"118.212945,39.714802",一网,8：00-19：00,1,130000,130200,130207,河北省,唐山市,丰南区,118.212945,39.714802
428,A0315013E05,唐山丰南区新华路雅迪,唐山丰南区新华路,13784103753,"118.109199,39.568714",一网,8：00-19：00,1,130000,130200,130207,河北省,唐山市,丰南区,118.109199,39.568714
429,A0315013F01,丰南柳树圈雅迪,唐山市丰南区柳树圈镇中心雅迪,13832969800,"118.117501,39.34387",二网,8：00-19：00,1,130000,130200,130207,河北省,唐山市,丰南区,118.117501,39.34387
430,A0315013F02,丰南小集雅迪,唐山市丰南区小集镇街头雅迪专卖店,13832969800,"118.293462,39.466011",二网,8：00-19：00,1,130000,130200,130207,河北省,唐山市,丰南区,118.293462,39.466011
431,A0315013F03,丰南稻地雅迪,稻地乡乡政府西侧雅迪,13102673611,"118.193829,39.572835",二网,8：00-19：00,1,130000,130200,130207,河北省,唐山市,丰南区,118.193829,39.572835
432,A0315013F04,丰南大辛庄雅迪,丰南大辛庄电动车街雅迪,13933335915,"117.74423,40.132063",二网,8：00-19：00,1,130000,130200,130207,河北省,唐山市,丰南区,117.74423,40.132063
433,A0315013F05,丰南钱营雅迪,钱营镇中心雅迪,13933348849,"118.386451,39.572321",二网,8：00-19：00,1,130000,130200,130207,河北省,唐山市,丰南区,118.386451,39.572321
434,A0315013F06,丰南南堡雅迪,南堡经济开发区南堡开发区希望路,13315524685,"118.216063,39.246953",二网,8：00-19：00,1,130000,130200,130207,河北省,唐山市,丰南区,118.216063,39.246953
435,A0315051F21,丰润白各庄雅迪,丰润白各庄,13603389302,"118.142397,39.90482",二网,8：00-19：00,1,130000,130200,130208,河北省,唐山市,丰润区,118.142397,39.90482
436,A0315051F22,丰润银城铺雅迪,丰润银城铺,13739898678,"118.195256,39.818119",二网,8：00-19：00,1,130000,130200,130208,河北省,唐山市,丰润区,118.195256,39.818119
437,A0315051F23,丰润王官营雅迪,丰润王官营,13292562806,"118.266639,39.916341",二网,8：00-19：00,1,130000,130200,130208,河北省,唐山市,丰润区,118.266639,39.916341
438,A0315051F24,丰润火石营雅迪,丰润火石营,15032920789,"118.263767,39.982916",二网,8：00-19：00,1,130000,130200,130208,河北省,唐山市,丰润区,118.263767,39.982916
439,A0315051F25,丰润高丽铺雅迪,丰润高丽铺,13931472394,"118.071876,39.854772",二网,8：00-19：00,1,130000,130200,130208,河北省,唐山市,丰润区,118.071876,39.854772
440,A0315051F26,丰润常庄雅迪,丰润常庄,13503377647,"118.202378,39.780429",二网,8：00-19：00,1,130000,130200,130208,河北省,唐山市,丰润区,118.202378,39.780429
441,A0315051F27,丰润沙务庄雅迪,丰润沙务庄,15503389888,"118.089634,39.701348",二网,8：00-19：00,1,130000,130200,130208,河北省,唐山市,丰润区,118.089634,39.701348
442,A0315051F28,丰润白官屯雅迪,丰润白官屯,13931531914,"117.965428,39.79574",二网,8：00-19：00,1,130000,130200,130208,河北省,唐山市,丰润区,117.965428,39.79574
443,A0315051F29,丰润雅迪专卖店,曹雪芹西道192号,18831539517,"118.129703,39.82902",二网,8：00-19：00,1,130000,130200,130208,河北省,唐山市,丰润区,118.129703,39.82902
444,A0315051F31,丰润雅迪专卖店,豆各庄,18831518686,"118.055086,39.87449",二网,8：00-19：00,1,130000,130200,130208,河北省,唐山市,丰润区,118.055086,39.87449
455,A0315020E01,新军屯雅迪,新军屯镇政府西200米,13831562440,"117.963071,39.650239",一网,8：00-19：00,1,130000,130200,130208,河北省,唐山市,丰润区,117.963071,39.650239
456,A0315013E08,唐海县城雅迪专卖店,唐海县曹纪甸恳丰大街50-1号,18931482626,"118.458946,39.278691",一网,8：00-19：00,1,130000,130200,130209,河北省,唐山市,曹妃甸区,118.458946,39.278691
457,A0315030F04,九百户北边,九百户镇汽车站北50米小建车行,18633303020,"118.534776,39.804897",二网,8：00-19：00,1,130000,130200,130223,河北省,唐山市,滦县,118.534776,39.804897
458,A0315030F07,九百户南边,九百户镇南边,15930551678,"118.528564,39.788103",二网,8：00-19：00,1,130000,130200,130223,河北省,唐山市,滦县,118.528564,39.788103
459,A0315030E01,滦县雅迪专卖店,滦县建华北大街102 ,13903256388,"118.701324,39.75488",一网,8：00-19：00,1,130000,130200,130223,河北省,唐山市,滦县,118.701324,39.75488
460,A0315030F01,响堂镇雅迪,滦南县响堂镇平青乐线研山新村 ,13582920419,"118.746615,39.709967",二网,8：00-19：00,1,130000,130200,130223,河北省,唐山市,滦县,118.746615,39.709967
461,A0315030F02,杨柳庄雅迪,滦县杨柳庄镇立马电动车雅迪电动车,13832848439,"118.390784,39.924781",二网,8：00-19：00,1,130000,130200,130223,河北省,唐山市,滦县,118.390784,39.924781
462,A0315030F03,雷庄,滦县雷庄雅迪电动车,13780258585,"118.596845,39.762228",二网,8：00-19：00,1,130000,130200,130223,河北省,唐山市,滦县,118.596845,39.762228
463,A0315030F05,小马庄,杨柏线西50米 ,15230531199,"118.565602,39.645274",二网,8：00-19：00,1,130000,130200,130223,河北省,唐山市,滦县,118.565602,39.645274
464,A0315030F06,樊各庄,樊各庄,15230539286,"118.720959,39.848565",二网,8：00-19：00,1,130000,130200,130223,河北省,唐山市,滦县,118.720959,39.848565
465,A0315030F08,油榨镇郑庄村,滦县油榨镇郑庄村,18932500692,"118.81215,39.850785",二网,8：00-19：00,1,130000,130200,130223,河北省,唐山市,滦县,118.81215,39.850785
466,A0315030F09,马庄子村雅迪,马庄子村雅迪,15833571889,"118.723679,39.787229",二网,8：00-19：00,1,130000,130200,130223,河北省,唐山市,滦县,118.723679,39.787229
467,A0315030F10,油榨镇,油榨镇油榨小学西20米,13091072078,"118.774817,39.860994",二网,8：00-19：00,1,130000,130200,130223,河北省,唐山市,滦县,118.774817,39.860994
468,A0315030F11,古马镇,滦县古马镇雅迪电动车,13785556389,"118.662635,39.665838",二网,8：00-19：00,1,130000,130200,130223,河北省,唐山市,滦县,118.662635,39.665838
469,A0315030F12,王店子,滦县王店子镇102国道高城子农村信用合作社 ,18331588099,"118.428126,39.870138",二网,8：00-19：00,1,130000,130200,130223,河北省,唐山市,滦县,118.428126,39.870138
470,A0315030F13,塔坨,滦县塔坨雅迪电动车,13663351095,"118.473691,39.686559",二网,8：00-19：00,1,130000,130200,130223,河北省,唐山市,滦县,118.473691,39.686559
471,A0315030F14,安各庄,滦县安格庄电动车,13933256070,"118.68137,39.801424",二网,8：00-19：00,1,130000,130200,130223,河北省,唐山市,滦县,118.68137,39.801424
472,A0315025E01,南大街嘉惠超市雅迪,南大街南大街与文化路交叉口西北50米,13832834016,"118.689853,39.511945",一网,8：00-19：00,1,130000,130200,130224,河北省,唐山市,滦南县,118.689853,39.511945
473,A0315025E02,南大街和平广场雅迪,南大街和平广场34号一楼,13832834016,"118.68492,39.514251",一网,8：00-19：00,1,130000,130200,130224,河北省,唐山市,滦南县,118.68492,39.514251
474,A0315025F08,上坡子雅迪,上坡子雅迪,15032566858,"118.638772,39.475868",二网,8：00-19：00,1,130000,130200,130224,河北省,唐山市,滦南县,118.638772,39.475868
475,A0315025F01,胡各庄乡雅迪,胡各庄乡雅迪,13930522141,"118.656478,39.403796",二网,8：00-19：00,1,130000,130200,130224,河北省,唐山市,滦南县,118.656478,39.403796
476,A0315025F02,柳赞镇雅迪,柳赞镇雅迪,18330312806,"118.665054,39.22454",二网,8：00-19：00,1,130000,130200,130224,河北省,唐山市,滦南县,118.665054,39.22454
477,A0315025F03,长凝镇雅迪,长凝镇雅迪,13784624204,"118.804297,39.588743",二网,8：00-19：00,1,130000,130200,130224,河北省,唐山市,滦南县,118.804297,39.588743
478,A0315025F04,大马庄乡雅迪,大马庄乡雅迪,13363360604,"118.718801,39.60717",二网,8：00-19：00,1,130000,130200,130224,河北省,唐山市,滦南县,118.718801,39.60717
479,A0315025F05,方各庄雅迪,方各庄雅迪,13803155507,"118.69729,39.476175",二网,8：00-19：00,1,130000,130200,130224,河北省,唐山市,滦南县,118.69729,39.476175
480,A0315025F06,安各庄雅迪,安各庄长南路北50米 ,15076223518,"118.458657,39.436431",二网,8：00-19：00,1,130000,130200,130224,河北省,唐山市,滦南县,118.458657,39.436431
481,A0315025F09,柏各庄雅迪专卖店,柏各庄雅迪专卖店,18032549859,"118.535438,39.309957",二网,8：00-19：00,1,130000,130200,130224,河北省,唐山市,滦南县,118.535438,39.309957
482,A0315031E01,城关东大街雅迪,乐亭县城关东大街,15032501678,"118.919881,39.431317",一网,8：00-19：00,1,130000,130200,130225,河北省,唐山市,乐亭县,118.919881,39.431317
483,A0315031E02,城关南大街雅迪,乐亭县城关南大街雅迪,15032501678,"118.920882,39.425857",一网,8：00-19：00,1,130000,130200,130225,河北省,唐山市,乐亭县,118.920882,39.425857
484,A0315031F03,乐亭县马头营雅迪,乐亭县马头营雅迪,13722534453,"118.829447,39.296594",二网,8：00-19：00,1,130000,130200,130225,河北省,唐山市,乐亭县,118.829447,39.296594
485,A0315031F04,乐亭县汤家河雅迪,乐亭县汤家河镇雅迪电动车,15232529718,"119.013004,39.348125",二网,8：00-19：00,1,130000,130200,130225,河北省,唐山市,乐亭县,119.013004,39.348125
486,A0315031F05,闫姜各庄雅迪,闫各庄雅迪,13722516224,"119.134274,39.453578",二网,8：00-19：00,1,130000,130200,130225,河北省,唐山市,乐亭县,119.134274,39.453578
487,A0315010E02,长城路一品华府雅迪,长城路一品华府雅迪,13784103753,"118.323751,40.149186",一网,8：00-19：00,1,130000,130200,130227,河北省,唐山市,迁西县,118.323751,40.149186
488,A0315010E01,喜峰中路雅迪,喜峰中路雅迪,13832897686,"118.312469,40.156274",一网,8：00-19：00,1,130000,130200,130227,河北省,唐山市,迁西县,118.312469,40.156274
489,A0315010F01,洒河镇雅迪,迁西洒河镇雅迪电动车,13784621808,"118.257885,40.332545",二网,8：00-19：00,1,130000,130200,130227,河北省,唐山市,迁西县,118.257885,40.332545
490,A0315010F02,新集镇雅迪,迁西县彭李线与还乡路交叉口东南100米 ,13722508066,"118.415369,40.101402",二网,8：00-19：00,1,130000,130200,130227,河北省,唐山市,迁西县,118.415369,40.101402
491,A0315051F33,供销社大厦一店,供销社大厦东100米,13292507378,"117.759157,39.883768",二网,8：00-19：00,1,130000,130200,130229,河北省,唐山市,玉田县,117.759157,39.883768
492,A0315051F20,丰润沙流河雅迪,丰润沙流河镇西十字路口西50米路北,13722532367,"117.939009,39.875052",二网,8：00-19：00,1,130000,130200,130229,河北省,唐山市,玉田县,117.939009,39.875052
493,A0315051G02,代官屯雅迪,代官屯瓶厂对面,13483544756,"117.844838,39.952196",三网,8：00-19：00,1,130000,130200,130229,河北省,唐山市,玉田县,117.844838,39.952196
494,A0315051G03,春生车行,林南仓十字路口南路西电话局对面,13513153057,"117.626018,39.827306",三网,8：00-19：00,1,130000,130200,130229,河北省,唐山市,玉田县,117.626018,39.827306
495,A0315051G04,大安镇雅迪,大安镇大南庄路西,15932537367,"117.539714,39.898072",三网,8：00-19：00,1,130000,130200,130229,河北省,唐山市,玉田县,117.539714,39.898072
496,A0315051G05,佰顺车行,窝洛沽农行对面路南,13903153899,"117.774337,39.666781",三网,8：00-19：00,1,130000,130200,130229,河北省,唐山市,玉田县,117.774337,39.666781
497,A0315051G06,安乐庄雅迪,后湖工业园路安乐庄路北,15030580298,"117.674683,39.869051",三网,8：00-19：00,1,130000,130200,130229,河北省,唐山市,玉田县,117.674683,39.869051
498,A0315051G07,虹桥雅迪,虹桥信用社南500米路东,13103058558,"117.746233,39.836135",三网,8：00-19：00,1,130000,130200,130229,河北省,唐山市,玉田县,117.746233,39.836135
499,A0315051G08,小坤车行,亮甲店十字路口东500米路北,15027681125,"117.884581,39.87517",三网,8：00-19：00,1,130000,130200,130229,河北省,唐山市,玉田县,117.884581,39.87517
500,A0315051G09,大虎车行,石臼窝邮政储蓄对面,13230578170,"117.681382,39.670192",三网,8：00-19：00,1,130000,130200,130229,河北省,唐山市,玉田县,117.681382,39.670192
501,A0315051G10,孤树镇雅迪专卖店,孤树大集西侧路北,15031874403,"117.594727,39.922174",三网,8：00-19：00,1,130000,130200,130229,河北省,唐山市,玉田县,117.594727,39.922174
502,A0315051G11,潮洛窝镇雅迪专卖店,潮洛窝信用社对面路东,15930550907,"117.823529,39.670651",三网,8：00-19：00,1,130000,130200,130229,河北省,唐山市,玉田县,117.823529,39.670651
503,A0315051G13,张各庄,玉田县张各庄雅迪专卖店,13930549691,"117.822301,38.843853",三网,8：00-19：00,1,130000,130200,130229,河北省,唐山市,玉田县,117.822301,38.843853
504,A0315051G14,散水头雅迪专卖店,玉田县散水头,15930508406,"117.79474,39.785678",三网,8：00-19：00,1,130000,130200,130229,河北省,唐山市,玉田县,117.79474,39.785678
505,A0315051G15,彩亭桥雅迪专卖店,玉田县彩亭桥,15027641902,"117.670391,39.901788",三网,8：00-19：00,1,130000,130200,130229,河北省,唐山市,玉田县,117.670391,39.901788
506,A0315051G16,丁官屯雅迪专卖店,玉田县丁官屯,13582877964,"117.878713,39.803488",三网,8：00-19：00,1,130000,130200,130229,河北省,唐山市,玉田县,117.878713,39.803488
507,A0315051G17,板桥雅迪专卖店,玉田县杨家板桥,13231519426,"117.626496,39.767688",三网,8：00-19：00,1,130000,130200,130229,河北省,唐山市,玉田县,117.626496,39.767688
525,A0315051E01,华明南路雅迪店,河北省唐山市遵化市华明南路,03156615036,"117.964039,40.192332",一网,8：00-19：00,1,130000,130200,130281,河北省,唐山市,遵化市,117.964039,40.192332
526,A0315051E02,通华西街雅迪,河北省唐山市遵化市通华西街（西关口东30米）,03156615036,"117.964319,40.193649",一网,8：00-19：00,1,130000,130200,130281,河北省,唐山市,遵化市,117.964319,40.193649
527,A0315051E03,遵化雅迪专卖店,河北省唐山市遵化市华明南路（西关口南150米）,03156615036,"117.963803,40.191981",一网,8：00-19：00,1,130000,130200,130281,河北省,唐山市,遵化市,117.963803,40.191981
528,A0315051F02,东新庄镇雅迪,东新庄镇,13832933697,"117.889779,40.066771",二网,8：00-19：00,1,130000,130200,130281,河北省,唐山市,遵化市,117.889779,40.066771
529,A0315051F03,马兰峪镇雅迪,马兰峪镇,13463559666,"117.701021,40.190183",二网,8：00-19：00,1,130000,130200,130281,河北省,唐山市,遵化市,117.701021,40.190183
530,A0315051F04,小辛庄镇雅迪,小辛庄镇,13223193693,"117.729782,40.125132",二网,8：00-19：00,1,130000,130200,130281,河北省,唐山市,遵化市,117.729782,40.125132
531,A0315051F05,崔家庄雅迪,崔家庄,13131578332,"118.041599,40.184691",二网,8：00-19：00,1,130000,130200,130281,河北省,唐山市,遵化市,118.041599,40.184691
532,A0315051F06,建明镇雅迪,建明镇,13582954796,"118.1275,40.19129",二网,8：00-19：00,1,130000,130200,130281,河北省,唐山市,遵化市,118.1275,40.19129
533,A0315051F07,东旧寨镇雅迪,东旧寨镇,13785540876,"118.147297,40.116017",二网,8：00-19：00,1,130000,130200,130281,河北省,唐山市,遵化市,118.147297,40.116017
534,A0315051F08,平安城镇雅迪,平安城镇,13156586788,"117.795409,40.055329",二网,8：00-19：00,1,130000,130200,130281,河北省,唐山市,遵化市,117.795409,40.055329
535,A0315051F09,曹家铺雅迪,曹家铺,13832933697,"117.897815,40.239295",二网,8：00-19：00,1,130000,130200,130281,河北省,唐山市,遵化市,117.897815,40.239295
536,A0315051F10,堡子店雅迪,堡子店,15230500196,"117.83841,40.106228",二网,8：00-19：00,1,130000,130200,130281,河北省,唐山市,遵化市,117.83841,40.106228
537,A0315051F11,苏家洼,遵化市苏家洼镇铁道北,13582944046,"117.966294,40.222948",二网,8：00-19：00,1,130000,130200,130281,河北省,唐山市,遵化市,117.966294,40.222948
538,A0315051F12,铁厂,遵化市铁厂镇,15933055724,"118.192451,40.061057",二网,8：00-19：00,1,130000,130200,130281,河北省,唐山市,遵化市,118.192451,40.061057
539,A0315051F13,黎河桥,遵化黎河桥村,13832562312,"117.972256,40.137956",二网,8：00-19：00,1,130000,130200,130281,河北省,唐山市,遵化市,117.972256,40.137956
540,A0315051F14,洪水川,遵化市洪水川村,13785607240,"117.918806,40.104359",二网,8：00-19：00,1,130000,130200,130281,河北省,唐山市,遵化市,117.918806,40.104359
541,A0315051F15,丰润任各庄雅迪专卖店,丰润任各庄,15128837585,"118.166123,39.739852",二网,8：00-19：00,1,130000,130200,130281,河北省,唐山市,遵化市,118.166123,39.739852
542,A0315051F16,宫里,遵化宫里乡雅迪专卖店,13933463543,"117.850522,40.010014",二网,8：00-19：00,1,130000,130200,130281,河北省,唐山市,遵化市,117.850522,40.010014
543,A0315051F17,党峪,遵化党峪镇雅迪专卖店,18832519037,"118.025419,39.992873",二网,8：00-19：00,1,130000,130200,130281,河北省,唐山市,遵化市,118.025419,39.992873
544,A0315051F18,新店子,遵化新店子镇雅迪专卖店,15081996999,"118.016211,40.070878",二网,8：00-19：00,1,130000,130200,130281,河北省,唐山市,遵化市,118.016211,40.070878
545,A0315051F19,地北头,遵化地北头顺驰车行,15733344422,"117.940752,39.936832",二网,8：00-19：00,1,130000,130200,130281,河北省,唐山市,遵化市,117.940752,39.936832
546,A0315051F30,下石河雅迪专卖店,遵化县下石河,18831518686,"118.027929,40.221836",二网,8：00-19：00,1,130000,130200,130281,河北省,唐山市,遵化市,118.027929,40.221836
569,A0315038F12,大五里,迁安市大五里雅迪电动车,15832525565,"118.530365,40.013031",二网,8：00-19：00,1,130000,130200,130283,河北省,唐山市,迁安市,118.530365,40.013031
570,A0315038F13,北代营,迁安市北代营雅迪电动车,13231565972,"118.732691,40.096728",二网,8：00-19：00,1,130000,130200,130283,河北省,唐山市,迁安市,118.732691,40.096728
571,A0315038F14,夏官营,迁安市夏官营雅迪电动车,13931442116,"118.817219,39.9793",二网,8：00-19：00,1,130000,130200,130283,河北省,唐山市,迁安市,118.817219,39.9793
572,A0315038F15,兰若院,迁安市兰若院雅迪电动车,13932594294,"118.735957,40.068804",二网,8：00-19：00,1,130000,130200,130283,河北省,唐山市,迁安市,118.735957,40.068804
573,A0315038F18,杨官营雅迪专门店,杨官营雅迪专门店,15133929932,"118.600343,39.996854",二网,8：00-19：00,1,130000,130200,130283,河北省,唐山市,迁安市,118.600343,39.996854
579,A0315038E01,迁安市新帆电动车商行,唐山市迁安镇昌盛大路1090号附近,13931487118,"118.7042,40.019861",一网,8：00-19：00,1,130000,130200,130283,河北省,唐山市,迁安市,118.7042,40.019861
580,A0315038E02,迁安市新帆电动车商行,河北省唐山市迁安市昌盛大路,13931487118,"118.704218,40.019599",一网,8：00-19：00,1,130000,130200,130283,河北省,唐山市,迁安市,118.704218,40.019599
581,A0315038F07,沙坨子雅迪,沙坨子兴文雅迪车行,13931487118,"118.695787,40.155889",二网,8：00-19：00,1,130000,130200,130283,河北省,唐山市,迁安市,118.695787,40.155889
582,A0315038F16,沙河驿,迁安市沙河驿振兴街南50米 ,18631555386,"118.596535,39.871759",二网,8：00-19：00,1,130000,130200,130283,河北省,唐山市,迁安市,118.596535,39.871759
583,A0315038F17,五重安雅迪专卖店,迁安市五重安雅迪专卖店,13722525171,"118.660849,40.193567",二网,8：00-19：00,1,130000,130200,130283,河北省,唐山市,迁安市,118.660849,40.193567
584,A0315038F01,建昌营镇雅迪,建昌营镇世纪大街南50米 ,13832926412,"118.809848,40.142488",二网,8：00-19：00,1,130000,130200,130283,河北省,唐山市,迁安市,118.809848,40.142488
585,A0315038F02,菜园镇雅迪,菜园镇雅迪电动车,15033927087,"118.547507,40.056894",二网,8：00-19：00,1,130000,130200,130283,河北省,唐山市,迁安市,118.547507,40.056894
586,A0315038F03,山港村雅迪,山港村雅迪,15830582153,"118.655617,39.898683",二网,8：00-19：00,1,130000,130200,130283,河北省,唐山市,迁安市,118.655617,39.898683
587,A0315038F04,燕钢雅迪,燕钢雅迪电动车,18132157706,"118.709981,39.97776",二网,8：00-19：00,1,130000,130200,130283,河北省,唐山市,迁安市,118.709981,39.97776
588,A0315038F05,上庄雅迪,上庄雅迪,13483908848,"118.761858,40.094101",二网,8：00-19：00,1,130000,130200,130283,河北省,唐山市,迁安市,118.761858,40.094101
589,A0315038F06,杨各庄雅迪,杨各庄雅迪,13930554375,"118.87536,40.095756",二网,8：00-19：00,1,130000,130200,130283,河北省,唐山市,迁安市,118.87536,40.095756
590,A0315038F08,木厂口,木厂口雅迪电动车,13040013565,"118.601485,39.933902",二网,8：00-19：00,1,130000,130200,130283,河北省,唐山市,迁安市,118.601485,39.933902
591,A0315038F09,滨河村,滨河村雅迪电动车,13473562175,"118.582085,40.017633",二网,8：00-19：00,1,130000,130200,130283,河北省,唐山市,迁安市,118.582085,40.017633
592,A0315038F10,杨店子,迁安市杨店子雅迪电动车,13582532948,"118.583265,40.015176",二网,8：00-19：00,1,130000,130200,130283,河北省,唐山市,迁安市,118.583265,40.015176
593,A0315038F11,扣庄,迁安市扣庄雅迪电动车,13930558439,"118.779342,40.054179",二网,8：00-19：00,1,130000,130200,130283,河北省,唐山市,迁安市,118.779342,40.054179
594,A0335011E01,和平大街雅迪专卖店,兴源街与海阳路交叉口北50米,03357922798,"119.5967,39.933796",一网,8：00-19：00,1,130000,130300,130302,河北省,秦皇岛市,海港区,119.5967,39.933796
595,A0335011E02,海阳路雅迪专卖店,和平大街与海阳路交叉口南50米,13582451081,"119.592726,39.935333",一网,8：00-19：00,1,130000,130300,130302,河北省,秦皇岛市,海港区,119.592726,39.935333
596,A0335011E03,东港路雅迪专卖店,秦皇岛市山海关区红光里小区东,13613349649,"119.627682,39.941991",一网,8：00-19：00,1,130000,130300,130302,河北省,秦皇岛市,海港区,119.627682,39.941991
600,A0335011F03,山海关雅迪专卖,站西街与老龙头路交叉口西100米（地道桥旁）,18713544888,"119.761185,39.998219",二网,8：00-19：00,1,130000,130300,130303,河北省,秦皇岛市,山海关区,119.761185,39.998219
602,A0335013E01,青龙雅迪装卖店,青龙满族自治县青龙镇都阳路服务街6-25号,15033560899,"118.948234,40.400606",一网,8：00-19：00,1,130000,130300,130321,河北省,秦皇岛市,青龙满族自治县,118.948234,40.400606
603,A0335013F01,大巫岚镇雅迪,大巫岚乡派出所旁,13315699663,"119.215937,40.408818",二网,8：00-19：00,1,130000,130300,130321,河北省,秦皇岛市,青龙满族自治县,119.215937,40.408818
604,A0335013F02,八道河镇雅迪,八道河街乡派出所往东500米,13731791766,"118.79086,40.39895",二网,8：00-19：00,1,130000,130300,130321,河北省,秦皇岛市,青龙满族自治县,118.79086,40.39895
605,A0335013F03,娄丈子镇雅迪,娄丈子村,13333301545,"118.775236,40.339093",二网,8：00-19：00,1,130000,130300,130321,河北省,秦皇岛市,青龙满族自治县,118.775236,40.339093
610,A0335005F02,深河乡雅迪,秦皇岛市抚宁县深河乡深河中学东50米,15333333799,"119.455967,39.940622",二网,8：00-19：00,1,130000,130300,130306,河北省,秦皇岛市,抚宁区,119.455967,39.940622
611,A0335005E01,抚宁县天马大街中段雅迪专卖店,抚宁县天马大街中段,15333333799,"119.251562,39.891416",一网,8：00-19：00,1,130000,130300,130306,河北省,秦皇岛市,抚宁区,119.251562,39.891416
612,A0335005E02,抚宁县骊城大街雅迪专卖店,骊城街道骊城大街88号(抚宁区妇幼保健院西北),15333333799,"119.243308,39.901164",一网,8：00-19：00,1,130000,130300,130306,河北省,秦皇岛市,抚宁区,119.243308,39.901164
613,A0335005F01,牛头崖镇雅迪,抚宁县水务局牛头崖水利管理站东北,13780330617,"119.41921,39.850471",二网,8：00-19：00,1,130000,130300,130306,河北省,秦皇岛市,抚宁区,119.41921,39.850471
614,A0335005F03,榆关信誉车行,榆关镇站南大街与635县道交叉口西南150米,15032331048,"119.412883,39.844298",二网,8：00-19：00,1,130000,130300,130306,河北省,秦皇岛市,抚宁区,119.412883,39.844298
615,A0335005F04,国立车行,河北省抚宁区抚宁镇鸭儿峪村南头,18233556663,"119.37666,39.948177",二网,8：00-19：00,1,130000,130300,130306,河北省,秦皇岛市,抚宁区,119.37666,39.948177
616,A0335005F05,纸房车行,河北省抚宁区抚宁镇香房村加油站对过,13930323746,"119.373596,39.941916",二网,8：00-19：00,1,130000,130300,130306,河北省,秦皇岛市,抚宁区,119.373596,39.941916
617,A0335011F02,石门寨镇雅迪,251省道东50米,13582451081,"119.610778,40.09206",二网,8：00-19：00,1,130000,130300,130306,河北省,秦皇岛市,抚宁区,119.610778,40.09206
626,A0310001E10,和平路雅迪专卖店,和平路气象局对过,03108133375,"114.518749,36.607051",一网,8：30-19：00,1,130000,130400,130402,河北省,邯郸市,邯山区,114.518749,36.607051
627,A0310001F25,码头镇雅迪专卖店,码头镇交通队北100米路北,15832069891,"114.438489,36.482429",二网,8：30-19：00,1,130000,130400,130402,河北省,邯郸市,邯山区,114.438489,36.482429
630,A0310001E06,光明大街雅迪专卖店,邯山渚河路与光明大街交叉口西行10米路北,03106054986,"114.493268,36.611878",一网,8：30-19：00,1,130000,130400,130403,河北省,邯郸市,丛台区,114.493268,36.611878
631,A0310001E07,稽山步行街雅迪电动车和平路专卖店,稽山步行街03-1-15A,03102052325,"114.488476,36.612379",一网,8：30-19：00,1,130000,130400,130403,河北省,邯郸市,丛台区,114.488476,36.612379
632,A0310001F01,黄粱梦雅迪专卖店,107国道黄粱梦镇移动公司对过,18730078076,"114.490772,36.692115",二网,8：30-19：00,1,130000,130400,130403,河北省,邯郸市,丛台区,114.490772,36.692115
633,A0310001F16,南堡村雅迪专卖店,南堡村幸福线,13111334798,"114.517702,36.561955",二网,8：30-19：00,1,130000,130400,130403,河北省,邯郸市,丛台区,114.517702,36.561955
634,A0310001F17,陶二雅迪专卖店,城南街小巴士服务站对过,15731040178,"114.493273,36.611952",二网,8：30-19：00,1,130000,130400,130403,河北省,邯郸市,丛台区,114.493273,36.611952
640,A0310001E01,邯郸市丛台区雅迪电动车和平路雅迪服务站,丛台城南街冀汇丰电动车广场北门河北邯郸丛台城南街22号,03103023444,"114.493212,36.611956",一网,8：30-19：00,1,130000,130400,130404,河北省,邯郸市,复兴区,114.493212,36.611956
641,A0310001E02,桃园街雅迪专卖店,中华路与联防路交叉口北行300米桃园街10号,15373468259,"114.493726,36.614297",一网,8：30-19：00,1,130000,130400,130404,河北省,邯郸市,复兴区,114.493726,36.614297
642,A0310001E04,城南街雅迪专卖店2店,和平路666号城南街22号,03108035626,"114.493156,36.611937",一网,8：30-19：00,1,130000,130400,130404,河北省,邯郸市,复兴区,114.493156,36.611937
643,A0310001E05,陵西大街雅迪专卖店,丛台稽山步行街07-1-05陵西大街55号,03102036848,"114.490527,36.602622",一网,8：30-19：00,1,130000,130400,130404,河北省,邯郸市,复兴区,114.490527,36.602622
648,A0310030F08,黄沙乡雅迪专卖店,黄沙矿学校北行200米路东,15632062898,"114.155207,36.379741",二网,8：00-19：00,1,130000,130400,130406,河北省,邯郸市,峰峰矿区,114.155207,36.379741
649,A0310001E03,城南街雅迪专卖店1店,峰峰矿新世纪广场北门爱洛婚纱摄影西面70米,03105128559,"114.217157,36.429335",一网,8：30-19：00,1,130000,130400,130406,河北省,邯郸市,峰峰矿区,114.217157,36.429335
652,A0310001F02,常张策雅迪专卖店,常张策村口南200米,13932048105,"114.56763,36.595836",二网,8：30-19：00,1,130000,130400,130421,河北省,邯郸市,邯郸县,114.56763,36.595836
653,A0310001F07,河沙镇雅迪专卖店,河沙镇中心卫生院斜对过,15028000956,"114.590674,36.526664",二网,8：30-19：00,1,130000,130400,130421,河北省,邯郸市,邯郸县,114.590674,36.526664
654,A0310001F08,尚壁镇雅迪专卖店,尚壁镇北屯头村口邯临公路路旁雅迪电动车,15188828648,"114.59132,36.668015",二网,8：30-19：00,1,130000,130400,130421,河北省,邯郸市,邯郸县,114.59132,36.668015
655,A0310001F28,东召里村雅迪专卖店,南吕固乡东召里村乡政府西街20米路南迎宾大道旁,13722689445,"114.542332,36.717432",二网,8：30-19：00,1,130000,130400,130421,河北省,邯郸市,邯郸县,114.542332,36.717432
656,A0310001F29,贾村雅迪专卖店,贾村桥南路东G22(青兰高速)旁,15354302792,"114.598669,36.705624",二网,8：30-19：00,1,130000,130400,130421,河北省,邯郸市,邯郸县,114.598669,36.705624
657,A0310002E02,县城丙盛雅迪专卖店2店,永年火车站南500米G107(邯邢路)踏浪电动车斜对过,18903202702,"114.49219,36.781234",一网,8：30-19：00,1,130000,130400,130421,河北省,邯郸市,邯郸县,114.49219,36.781234
664,A0310032E01,南二环王禅东路西专卖店,临漳县南二环王禅东路西段路南,03107881865,"114.620405,36.337458",一网,8：00-19：00,1,130000,130400,130423,河北省,邯郸市,临漳县,114.620405,36.337458
665,A0310032E02,南二环王禅东路东专卖店,临漳县南二环王禅东路东段路北,03107881865,"114.622776,36.337414",一网,8：00-19：00,1,130000,130400,130423,河北省,邯郸市,临漳县,114.622776,36.337414
666,A0310032F01,孙陶镇雅迪专卖店,孙陶镇邮政局旁200米,15930003596,"114.52469,36.200632",二网,8：00-19：00,1,130000,130400,130423,河北省,邯郸市,临漳县,114.52469,36.200632
667,A0310032F02,柏鹤镇雅迪专卖店,柏鹤镇柏鹤集路中段路十字路北邮政局旁,13703105316,"114.714125,36.294531",二网,8：00-19：00,1,130000,130400,130423,河北省,邯郸市,临漳县,114.714125,36.294531
668,A0310032F03,称勾镇雅迪专卖店,称勾镇国际双语幼儿园旁,13832016742,"114.705573,36.24729",二网,8：00-19：00,1,130000,130400,130423,河北省,邯郸市,临漳县,114.705573,36.24729
669,A0310032F04,杜村镇雅迪专卖店,杜村镇大集东羊羔村,15226945168,"114.534766,36.276293",二网,8：00-19：00,1,130000,130400,130423,河北省,邯郸市,临漳县,114.534766,36.276293
670,A0310032F05,张村集乡雅迪专卖店,张村集乡进村路口东,15102629458,"114.618833,36.247974",二网,8：00-19：00,1,130000,130400,130423,河北省,邯郸市,临漳县,114.618833,36.247974
671,A0310032F06,马村乡李营村口雅迪专卖店,马村乡李营村口,15232071369,"114.672929,36.154588",二网,8：00-19：00,1,130000,130400,130423,河北省,邯郸市,临漳县,114.672929,36.154588
672,A0310032F07,习文乡仁寿村根雅迪专卖店,临漳县习文乡仁寿村,13785063491,"114.443609,36.245282",二网,8：00-19：00,1,130000,130400,130423,河北省,邯郸市,临漳县,114.443609,36.245282
673,A0310032F08,太平村雅迪专卖店,临漳县习文乡西太平村,13784200933,"114.36799,36.251772",二网,8：00-19：00,1,130000,130400,130423,河北省,邯郸市,临漳县,114.36799,36.251772
674,A0310032F09,黄辛庄雅迪专卖店,临漳县章立集乡黄辛庄村南,15233817444,"114.484797,36.358718",二网,8：00-19：00,1,130000,130400,130423,河北省,邯郸市,临漳县,114.484797,36.358718
686,A0310022E01,成安镇专卖店,成安县邯大路老汽车站西行200米路南,03107219035,"114.70386,36.453255",一网,8：00-19：00,1,130000,130400,130424,河北省,邯郸市,成安县,114.70386,36.453255
687,A0310022F01,北乡义乡专卖店,成安县北乡义西桥边,15033887846,"114.808276,36.454537",二网,8：00-19：00,1,130000,130400,130424,河北省,邯郸市,成安县,114.808276,36.454537
688,A0310022F02,商城镇专卖店,成安县商城镇邯临线与成马路交叉口南行50米路西,15531018958,"114.557985,36.455222",二网,8：00-19：00,1,130000,130400,130424,河北省,邯郸市,成安县,114.557985,36.455222
689,A0310022F03,漳河店镇专卖店,成安县漳河店镇邮政局旁路南,13754489070,"114.824271,36.421371",二网,8：00-19：00,1,130000,130400,130424,河北省,邯郸市,成安县,114.824271,36.421371
690,A0310022F04,李家疃镇专卖店,成安县李家疃西头路北,13315051990,"114.758068,36.358897",二网,8：00-19：00,1,130000,130400,130424,河北省,邯郸市,成安县,114.758068,36.358897
691,A0310022F05,北郎卜村专卖店,成安县北郎堡中段路北,13283404178,"114.622734,36.454022",二网,8：00-19：00,1,130000,130400,130424,河北省,邯郸市,成安县,114.622734,36.454022
692,A0310022F06,柏寺营乡专卖店,成安县柏寺营乡中段路东,13784237752,"114.740552,36.390244",二网,8：00-19：00,1,130000,130400,130424,河北省,邯郸市,成安县,114.740552,36.390244
693,A0310022F07,长巷乡专卖店,成安县长巷乡邮局西100米,13803107660,"114.740574,36.390164",二网,8：00-19：00,1,130000,130400,130424,河北省,邯郸市,成安县,114.740574,36.390164
694,A0310022F08,道东堡乡河疃村专卖店,成安县河疃村中段路东,15097661662,"114.746552,36.499631",二网,8：00-19：00,1,130000,130400,130424,河北省,邯郸市,成安县,114.746552,36.499631
695,A0310022F09,道东堡乡化店村专卖店,成安县道东堡化店村中段路南,15530024352,"114.754642,36.45699",二网,8：00-19：00,1,130000,130400,130424,河北省,邯郸市,成安县,114.754642,36.45699
696,A0310022E02,凤凰路东城北街服务站,凤凰路东城北街十字路口往西200米路北,03107219035,"114.709563,36.438821",一网,8：00-19：00,1,130000,130400,130424,河北省,邯郸市,成安县,114.709563,36.438821
708,A0310008E01,大名府宏茂雅迪专卖店,大名府路东段宏茂车业,03106587198,"115.158093,36.290598",一网,8：00-20：00,1,130000,130400,130425,河北省,邯郸市,大名县,115.158093,36.290598
709,A0310008F01,杨桥镇雅迪专卖店,杨桥镇南头拐角路南红遍天服饰广场旁,15175092171,"115.114312,36.434457",二网,8：00-20：00,1,130000,130400,130425,河北省,邯郸市,大名县,115.114312,36.434457
710,A0310008F03,西付集乡雅迪专卖店,西付集乡大名雨轩日化旁,13633207375,"115.340216,36.140362",二网,8：00-18：00,1,130000,130400,130425,河北省,邯郸市,大名县,115.340216,36.140362
711,A0310008F04,龙王庙雅迪专卖店,龙王庙镇一村京广线山东正宗笨鸭火锅对面,13131034688,"115.235074,36.218074",二网,8：00-20：00,1,130000,130400,130425,河北省,邯郸市,大名县,115.235074,36.218074
712,A0310008F05,张集雅迪专卖店,张集信用社向南188米路东,15233886461,"115.354536,36.288692",二网,8：00-20：00,1,130000,130400,130425,河北省,邯郸市,大名县,115.354536,36.288692
713,A0310008F06,黄金堤雅迪专卖店,黄金堤乡王乍村南街路东,13292050754,"115.24059,36.43489",二网,8：00-20：00,1,130000,130400,130425,河北省,邯郸市,大名县,115.24059,36.43489
714,A0310008F07,万堤雅迪专卖店,万堤镇万北村万金路中段路北惠安堂对门,13483093789,"115.184942,36.3957891",二网,8：00-18：00,1,130000,130400,130425,河北省,邯郸市,大名县,115.184942,36.3957891
715,A0310008F08,铺上雅迪专卖店,铺上乡常元线旁,13730024007,"115.098414,36.370056",二网,8：00-19：00,1,130000,130400,130425,河北省,邯郸市,大名县,115.098414,36.370056
716,A0310015F03,房寨镇雅迪专卖店,馆陶房寨镇阳光超旁,13832021545,"115.203813,36.521738",二网,8：00-19：00,1,130000,130400,130425,河北省,邯郸市,大名县,115.203813,36.521738
726,A0310010E01,太行市场雅迪电动车服务站,涉贸易街太行市场太行花园B104,03103851001,"113.674847,36.565856",一网,8：30-19：00,1,130000,130400,130426,河北省,邯郸市,涉县,113.674847,36.565856
727,A0310010E02,涉城镇雅迪专卖店,涉城镇牌坊路实验小学对面,03103819666,"113.676127,36.566073",一网,8：00-20：00,1,130000,130400,130426,河北省,邯郸市,涉县,113.676127,36.566073
728,A0310010E03,牌坊路雅迪专卖店,牌坊路十字路口龙山大街277号附近店,03105576076,"113.677712,36.565101",一网,8：00-20：00,1,130000,130400,130426,河北省,邯郸市,涉县,113.677712,36.565101
729,A0310010F01,西达镇雅迪专卖店,西达镇桥头雅迪专卖店加油站旁,15831077403,"113.842084,36.426604",二网,8：00-20：00,1,130000,130400,130426,河北省,邯郸市,涉县,113.842084,36.426604
734,A0310030E01,磁县中山路雅迪专卖店,磁县中山路81号,03102136999,"114.386532,36.366512",一网,8：00-19：00,1,130000,130400,130427,河北省,邯郸市,磁县,114.386532,36.366512
735,A0310030E02,磁县中山路雅迪专卖店,磁县中山路61号,18831091589,"114.388487,36.366228",一网,8：00-19：00,1,130000,130400,130427,河北省,邯郸市,磁县,114.388487,36.366228
736,A0310030F01,高臾镇雅迪专卖店,高臾镇奶奶庙西50米路南,15081072955,"116.457109,39.923604",二网,8：00-19：00,1,130000,130400,130427,河北省,邯郸市,磁县,116.457109,39.923604
737,A0310030F02,辛庄营雅迪专卖店,辛庄营卫生院对面路南,15027925675,"114.49772,36.466748",二网,8：00-19：00,1,130000,130400,130427,河北省,邯郸市,磁县,114.49772,36.466748
738,A0310030F03,光禄镇雅迪专卖店,光禄镇卫生院东150米路南,15131007395,"114.371238,36.434931",二网,8：00-19：00,1,130000,130400,130427,河北省,邯郸市,磁县,114.371238,36.434931
739,A0310030F04,林坛镇雅迪专卖店,林坛镇信用社西20米路南,13832063567,"114.329247,36.488878",二网,8：00-19：00,1,130000,130400,130427,河北省,邯郸市,磁县,114.329247,36.488878
740,A0310030F05,岳城镇雅迪专卖店,岳城菜市场西20米路北,13931038427,"116.455546,39.903667",二网,8：00-19：00,1,130000,130400,130427,河北省,邯郸市,磁县,116.455546,39.903667
741,A0310030F06,时村营乡雅迪专卖店,时村营供电所东侧50米路南,03102189777,"114.291712,36.28471",二网,8：00-19：00,1,130000,130400,130427,河北省,邯郸市,磁县,114.291712,36.28471
742,A0310030F07,都党乡雅迪专卖店,都党乡楠漫水桥南行200米,13730075587,"114.10512,36.3726",二网,8：00-19：00,1,130000,130400,130427,河北省,邯郸市,磁县,114.10512,36.3726
743,A0310030F09,路村营乡雅迪专卖店,西田井加油站西行100米路南,13643200792,"114.304262,36.392793",二网,8：00-19：00,1,130000,130400,130427,河北省,邯郸市,磁县,114.304262,36.392793
754,A0310001F04,吕营镇雅迪专卖店,吕营镇309国道北20米,15075022469,"114.960715,36.563883",二网,8：30-19：00,1,130000,130400,130428,河北省,邯郸市,肥乡县,114.960715,36.563883
755,A0310001F09,潘寨雅迪专卖店,潘寨市场东侧G309(荣兰线)路旁,15132009199,"114.674596,36.583898",二网,8：30-19：00,1,130000,130400,130428,河北省,邯郸市,肥乡县,114.674596,36.583898
756,A0310006F10,东大由雅迪专卖店,东大由东头路南柴线日新学校斜对过,15230034699,"114.882216,36.682825",二网,8：30-19：00,1,130000,130400,130428,河北省,邯郸市,肥乡县,114.882216,36.682825
757,A0310035E01,建安路雅迪专卖店,电影院路口其他兴华街与建安路交叉口东北角幸福鸟旁,17703208009,"114.815388,36.559231",一网,8：00-18：30,1,130000,130400,130428,河北省,邯郸市,肥乡县,114.815388,36.559231
758,A0310035F01,贸易街雅迪专卖店,天台山镇贸易街十字路口南,15075040110,"114.819332,36.558538",二网,8：00-18：30,1,130000,130400,130428,河北省,邯郸市,肥乡县,114.819332,36.558538
759,A0310035F02,崔庄村雅迪专卖店,毛演卜乡崔庄村建波超东北200米,15833201877,"114.864645,36.640574",二网,8：00-19：00,1,130000,130400,130428,河北省,邯郸市,肥乡县,114.864645,36.640574
760,A0310035F03,北高村雅迪专卖店,旧店乡北高村村口贾南线西50米派出所旁,13930050261,"114.917985,36.621078",二网,8：00-19：00,1,130000,130400,130428,河北省,邯郸市,肥乡县,114.917985,36.621078
768,A0310002E01,县城丙盛雅迪专卖店1,火车站南100米G107(邯邢路)小刀电动车斜对过,18903202702,"114.492246,36.782281",一网,8：30-19：00,1,130000,130400,130429,河北省,邯郸市,永年县,114.492246,36.782281
769,A0310002F01,南沿村雅迪专卖店,南沿村镇西王庄路口往东20米邯临线申恒机电南20米,15833408796,"114.6825,36.676803",二网,8：00-20：00,1,130000,130400,130429,河北省,邯郸市,永年县,114.6825,36.676803
770,A0310002F02,东杨庄雅迪专卖店,东杨庄乡东杨庄村后马路中断康明眼睛旁,13283105271,"114.721024,36.776846",二网,8：00-20：00,1,130000,130400,130429,河北省,邯郸市,永年县,114.721024,36.776846
771,A0310002F03,正西乡雅迪专卖店,正西乡西一村供销社东20米,15175075398,"114.726624,36.901916",二网,8：00-20：00,1,130000,130400,130429,河北省,邯郸市,永年县,114.726624,36.901916
772,A0310002F04,大北汪镇雅迪专卖店,大北汪镇镇东西行100米雅迪专卖店,15081027855,"114.5653069,36.844478",二网,8：30-18：00,1,130000,130400,130429,河北省,邯郸市,永年县,114.5653069,36.844478
773,A0310002F05,茹佐村雅迪专卖店,东杨庄镇茹佐村后马路席庄路口现周百货批发部旁,15176091236,"114.654967,36.771737",二网,8：00-19：00,1,130000,130400,130429,河北省,邯郸市,永年县,114.654967,36.771737
774,A0310002F06,马军营村雅迪专卖店,张西堡镇马军营村邯临路S311航航鸭脖王旁,15233807368,"114.835463,36.749027",二网,8：00-19：00,1,130000,130400,130429,河北省,邯郸市,永年县,114.835463,36.749027
775,A0310002F07,工业园区雅迪专卖店,城关镇工业园路口S036旁高鹏艺术玻璃门东北100米,15030059813,"114.747595,36.724809",二网,8：00-19：00,1,130000,130400,130429,河北省,邯郸市,永年县,114.747595,36.724809
776,A0310002F08,李庄村雅迪专卖店,张西堡镇李庄村加油站东300米路南,15226992706,"114.799087,36.740308",二网,8：00-20：00,1,130000,130400,130429,河北省,邯郸市,永年县,114.799087,36.740308
777,A0310002F09,西河庄乡雅迪专卖店,西河庄乡卫生院对面,13223115616,"114.812186,36.727472",二网,6：00-20：00,1,130000,130400,130429,河北省,邯郸市,永年县,114.812186,36.727472
778,A0310002F10,大张村雅迪专卖店,小龙马乡大张村加油站斜对角S036旁,15713002900,"114.67829,36.728969",二网,8：30-17：00,1,130000,130400,130429,河北省,邯郸市,永年县,114.67829,36.728969
779,A0310002F11,六星村雅迪专卖店,西苏乡六星村S036小小饭店旁100米,13315041164,"114.598024,36.745679",二网,8：00-19：00,1,130000,130400,130429,河北省,邯郸市,永年县,114.598024,36.745679
780,A0310002F12,洺园街雅迪专卖店,洺兴路与洺园街交叉口路南三角轮胎旁,15075076072,"114.496494,36.775806",二网,8：00-19：00,1,130000,130400,130429,河北省,邯郸市,永年县,114.496494,36.775806
781,A0310006F07,曹庄路雅迪专卖店,曹庄乡曹庄路口北行100米路西,15033004730,"114.885195,36.769376",二网,8：30-19：00,1,130000,130400,130429,河北省,邯郸市,永年县,114.885195,36.769376
782,A0310006F25,孙堡营雅迪专卖店,鸡泽曹庄乡孙堡营村强的饭店旁,13171866463,"114.856752,36.79361",二网,6：00-20：00,1,130000,130400,130429,河北省,邯郸市,永年县,114.856752,36.79361
798,A0310006F06,鸡泽县雅迪专卖店,人民西路实验中学西侧,15333300918,"114.880178,36.915965",二网,8：30-19：00,1,130000,130400,130431,河北省,邯郸市,鸡泽县,114.880178,36.915965
799,A0310006F21,吴官营乡雅迪专卖店,吴官营乡派出所旁200,18231010936,"114.934524,36.928239",二网,7：00-19：00,1,130000,130400,130431,河北省,邯郸市,鸡泽县,114.934524,36.928239
800,A0310006F23,申底雅迪专卖店,双塔镇申底村中间中国电信旁200米,13171868933,"114.82081,36.831054",二网,8：30-19：00,1,130000,130400,130431,河北省,邯郸市,鸡泽县,114.82081,36.831054
801,A0310006F24,双塔镇雅迪专卖店,双塔镇宾馆对面,15075083616,"114.80676,36.819065",二网,8：30-19：00,1,130000,130400,130431,河北省,邯郸市,鸡泽县,114.80676,36.819065
806,A0310021F03,广平县胜营镇专卖店,广平县胜营镇胜辛东路55号,13932011677,"114.870971,36.398201",二网,8：00-19：00,1,130000,130400,130432,河北省,邯郸市,广平县,114.870971,36.398201
807,A0310036E01,人民路雅迪专卖店1店,人民路西段路南,03102525399,"114.951943,36.488362",一网,8：00-19：00,1,130000,130400,130432,河北省,邯郸市,广平县,114.951943,36.488362
808,A0310036E02,人民路雅迪专卖店2店,人民路西段路南1店旁5米,03102525399,"114.951948,36.488369",一网,8：00-19：00,1,130000,130400,130432,河北省,邯郸市,广平县,114.951948,36.488369
809,A0310036F01,海山路雅迪专卖店,海山东路与海山西路交叉口北100米,15175078552,"115.079835,36.577111",二网,8：00-20：00,1,130000,130400,130432,河北省,邯郸市,广平县,115.079835,36.577111
810,A0310036F02,大牙线雅迪专卖店,南阳堡乡新市场大牙线北200米,13463002081,"115.017925,36.527953",二网,8：00-20：00,1,130000,130400,130432,河北省,邯郸市,广平县,115.017925,36.527953
811,A0310036F03,南韩村乡雅迪专卖店,南韩村乡十字街西50米路北运清牙科西南角,15032871564,"115.061031,36.508222",二网,8：00-19：00,1,130000,130400,130432,河北省,邯郸市,广平县,115.061031,36.508222
818,A0310015E01,馆陶县雅迪专卖店,亿丰车业广场1店,03102827066,"115.284132,36.540751",一网,8：00-18：00,1,130000,130400,130433,河北省,邯郸市,馆陶县,115.284132,36.540751
819,A0310015E02,新华街雅迪专卖店,新华街北段路西（移动公司对过）,03102827066,"115.294727,36.549337",一网,8：00-19：00,1,130000,130400,130433,河北省,邯郸市,馆陶县,115.294727,36.549337
820,A0310015F10,林北镇雅迪专卖店,林北镇建国超旁,15833446832,"115.325039,36.60086",二网,8：00-20：00,1,130000,130400,130433,河北省,邯郸市,馆陶县,115.325039,36.60086
821,A0310015F11,卫东镇雅迪专卖店,卫东镇阳光超东行100米,13703309490,"115.391227,36.725008",二网,7：00-20：00,1,130000,130400,130433,河北省,邯郸市,馆陶县,115.391227,36.725008
822,A0310015F04,张寨雅迪专卖店,路桥乡张官寨村,15733472008,"115.316993,36.705977",二网,8：00-20：00,1,130000,130400,130433,河北省,邯郸市,馆陶县,115.316993,36.705977
823,A0310015F05,南辛庄雅迪专卖店,邱邱城镇南辛庄村,15832028683,"115.238844,36.652848",二网,6：00-20：00,1,130000,130400,130433,河北省,邯郸市,馆陶县,115.238844,36.652848
824,A0310015F06,梁二庄雅迪专卖店,邱梁二庄乡北头路西,13831023688,"115.344665,36.638446",二网,8：00-20：00,1,130000,130400,130433,河北省,邯郸市,馆陶县,115.344665,36.638446
825,A0310015F07,北孙店雅迪专卖店,王桥乡北孙店村,15633107273,"115.23073,36.479215",二网,8：00-20：00,1,130000,130400,130433,河北省,邯郸市,馆陶县,115.23073,36.479215
826,A0310015F08,西河寨乡雅迪专卖店,房寨镇西河寨乡联合小学东28米,13343207838,"115.148584,36.510136",二网,8：00-20：00,1,130000,130400,130433,河北省,邯郸市,馆陶县,115.148584,36.510136
827,A0310015F09,柴堡南村雅迪专卖店,柴堡镇柴堡南村,15233863033,"115.279026,36.607762",二网,6：00-20：00,1,130000,130400,130433,河北省,邯郸市,馆陶县,115.279026,36.607762
838,A0310021E01,望远北街专卖店,魏县望远北街,03105200555,"114.938577,36.368978",一网,8：00-19：00,1,130000,130400,130434,河北省,邯郸市,魏县,114.938577,36.368978
839,A0310021F01,双井镇专卖店,魏县双井镇通源西路58号,15383804111,"114.984089,36.233607",二网,8：00-19：00,1,130000,130400,130434,河北省,邯郸市,魏县,114.984089,36.233607
840,A0310021F02,野胡拐乡专卖店,魏县野胡拐乡漳河南街66/12号,15830008671,"114.940674,36.281875",二网,8：00-19：00,1,130000,130400,130434,河北省,邯郸市,魏县,114.940674,36.281875
841,A0310021F04,兴堡中街专卖店,魏县兴堡中街6号,13932011677,"114.836608,36.337564",二网,8：00-19：00,1,130000,130400,130434,河北省,邯郸市,魏县,114.836608,36.337564
842,A0310021F05,大辛庄乡专卖店,大辛庄乡邮局北20米,03103481280,"115.063121,36.238562",二网,8：00-19：00,1,130000,130400,130434,河北省,邯郸市,魏县,115.063121,36.238562
843,A0310021F06,边马乡专卖店,魏县边马乡双贸南头路东,13784000916,"115.044466,36.172186",二网,8：00-19：00,1,130000,130400,130434,河北省,邯郸市,魏县,115.044466,36.172186
844,A0310021F07,回隆镇专卖店,魏县回隆镇内黄东路66号,15075406693,"114.781625,36.150765",二网,8：00-19：00,1,130000,130400,130434,河北省,邯郸市,魏县,114.781625,36.150765
845,A0310021F09,张二庄镇专卖店1店,张二庄镇215省道,13733300901,"114.95194,36.103146",二网,8：00-19：00,1,130000,130400,130434,河北省,邯郸市,魏县,114.95194,36.103146
846,A0310021F10,北皋镇专卖店,魏县北皋镇新农村万信电器,13011531616,"114.805604,36.278739",二网,8：00-19：00,1,130000,130400,130434,河北省,邯郸市,魏县,114.805604,36.278739
847,A0310021F11,沙口集乡专卖店,沙口集乡拐里北邯大路路北,13932096193,"115.062121,36.321199",二网,8：00-19：00,1,130000,130400,130434,河北省,邯郸市,魏县,115.062121,36.321199
848,A0310021F12,张二庄镇专卖店2店,张二庄镇大严屯村安阳路中段,13785403345,"114.999279,36.109613",二网,8：00-19：00,1,130000,130400,130434,河北省,邯郸市,魏县,114.999279,36.109613
849,A0310021F13,车往镇专卖店,魏县车往镇韩濮路与魏回路交叉路口,15226937299,"114.834636,36.199432",二网,8：00-19：00,1,130000,130400,130434,河北省,邯郸市,魏县,114.834636,36.199432
850,A0310021F14,双庙乡专卖店,魏县双庙乡中华街15号,15931006003,"114.931858,36.253926",二网,8：00-19：00,1,130000,130400,130434,河北省,邯郸市,魏县,114.931858,36.253926
851,A0310008F02,王村镇雅迪专卖店,王村镇农村商业银行斜对过200米,13784267295,"115.012615,36.410298",二网,8：00-19：00,1,130000,130400,130434,河北省,邯郸市,魏县,115.012615,36.410298
866,A0310006F01,邱县专卖店,邱县梁二庄镇路西,15830406660,"115.269071,36.737229",二网,8：00-19：00,1,130000,130400,130435,河北省,邯郸市,曲周县,115.269071,36.737229
867,A0310006F02,鸡泽柴庄专卖店,鸡泽柴庄镇路南,15128034258,"114.881128,36.834869",二网,8：00-19：00,1,130000,130400,130435,河北省,邯郸市,曲周县,114.881128,36.834869
868,A0310006E01,开元商贸有限公司雅迪服务站,光明街金凤商城第二排,03108818908,"114.95569,36.778108",一网,8：30-19：00,1,130000,130400,130435,河北省,邯郸市,曲周县,114.95569,36.778108
869,A0310006F28,汽车站雅迪专卖店,振兴路汽车站对面,03108866212,"114.967956,36.780419",二网,8：30-19：00,1,130000,130400,130435,河北省,邯郸市,曲周县,114.967956,36.780419
870,A0310006F29,安寨镇雅迪专卖店,安寨镇政府西行200米路北1店,15931011864,"114.985639,36.678229",二网,8：30-19：00,1,130000,130400,130435,河北省,邯郸市,曲周县,114.985639,36.678229
871,A0310006F03,河南疃雅迪专卖店,河南疃镇镇丁字路口西100米路南,13903300411,"115.034071,36.932691",二网,8：30-19：00,1,130000,130400,130435,河北省,邯郸市,曲周县,115.034071,36.932691
872,A0310006F04,四疃雅迪专卖店,四疃镇路口东行100米路北河北邯郸曲周S234旁,13103202871,"115.007289,36.871665",二网,8：30-19：00,1,130000,130400,130435,河北省,邯郸市,曲周县,115.007289,36.871665
873,A0310006F05,里岳乡雅迪专卖店,里岳乡政府东行100米路南,03108750825,"115.029552,36.726909",二网,8：00-20：00,1,130000,130400,130435,河北省,邯郸市,曲周县,115.029552,36.726909
874,A0310006F09,新寨村雅迪专卖店,白寨乡新寨村口曦森家具旁200米,13483067536,"114.935739,36.73344",二网,8：30-19：00,1,130000,130400,130435,河北省,邯郸市,曲周县,114.935739,36.73344
875,A0310006F11,大河道雅迪专卖店,大河道村东头路宏运塑料制品公司斜对过100米,13930020455,"114.939559,36.681804",二网,8：30-19：00,1,130000,130400,130435,河北省,邯郸市,曲周县,114.939559,36.681804
876,A0310006F12,连固乡雅迪专卖店,马连固村南柴线旁曲周马连固中学斜对过200米,15128005055,"115.064196,36.648429",二网,8：30-19：00,1,130000,130400,130435,河北省,邯郸市,曲周县,115.064196,36.648429
877,A0310006F15,西来村雅迪专卖店,依庄乡西来村村南头路东星星美妆旁100米,18330074663,"115.201332,36.649035",二网,8：30-19：00,1,130000,130400,130435,河北省,邯郸市,曲周县,115.201332,36.649035
878,A0310006F16,呈孟雅迪专卖店,呈孟十字路口100米路北曲侯线旁,13739602021,"115.091405,36.703063",二网,8：30-19：00,1,130000,130400,130435,河北省,邯郸市,曲周县,115.091405,36.703063
879,A0310006F17,槐桥雅迪专卖店,槐桥乡东漳头路口东50米金客来饭店旁200米,15931001575,"115.045861,36.789537",二网,6：00-20：00,1,130000,130400,130435,河北省,邯郸市,曲周县,115.045861,36.789537
880,A0310006F18,十三村雅迪专卖店,十三村卜街新农村,15230048022,"115.031555,36.826657",二网,8：30-19：00,1,130000,130400,130435,河北省,邯郸市,曲周县,115.031555,36.826657
881,A0310006F19,柴吕寨雅迪专卖店,白寨乡柴吕寨街东头路北柴吕寨小学斜对角200米,15297570468,"114.903207,36.717287",二网,8：30-19：00,1,130000,130400,130435,河北省,邯郸市,曲周县,114.903207,36.717287
882,A0310006F20,北龙堂村雅迪专卖店,四疃镇北龙堂村东头,15103207306,"115.066916,36.864174",二网,7：00-20：00,1,130000,130400,130435,河北省,邯郸市,曲周县,115.066916,36.864174
883,A0310006F22,浮图店街雅迪专卖店,浮图店街东头路北鸡泽新华酒厂旁200米,15630383698,"114.791001,36.897074",二网,8：30-19：00,1,130000,130400,130435,河北省,邯郸市,曲周县,114.791001,36.897074
884,A0310006F26,梁儿庄雅迪专卖店,邱梁儿庄镇路西国家电网旁100米,15830406660,"115.177102,36.817767",二网,8：00-19：00,1,130000,130400,130435,河北省,邯郸市,曲周县,115.177102,36.817767
885,A0310006F27,柴庄雅迪专卖店,鸡泽柴庄路南,15128034258,"114.882435,36.834717",二网,8：30-19：00,1,130000,130400,130435,河北省,邯郸市,曲周县,114.882435,36.834717
906,A0310001F05,上团城乡雅迪专卖店,上团城乡路口东50米路北S312旁雅迪团城店,15226976063,"114.132541,36.738147",二网,8：30-19：00,1,130000,130400,130481,河北省,邯郸市,武安市,114.132541,36.738147
907,A0310001F06,桥西路雅迪专卖店,桥西路剧场东行20米路南,15081088663,"114.209487,36.694716",二网,8：30-19：00,1,130000,130400,130481,河北省,邯郸市,武安市,114.209487,36.694716
908,A0310001F10,阳邑镇雅迪专卖店,阳邑镇信用社东行20米S202路,13722392260,"113.910926,36.737329",二网,8：30-19：00,1,130000,130400,130481,河北省,邯郸市,武安市,113.910926,36.737329
909,A0310001F11,峰峰大社镇雅迪专卖店,大社镇政府斜对面浴新大街75号,13463084501,"114.48269393,36.60930793",二网,8：30-19：00,1,130000,130400,130481,河北省,邯郸市,武安市,114.48269393,36.60930793
910,A0310001F12,格村雅迪专卖店,格村村口G309(荣兰线)旁红福楼东南,18132308087,"114.160125,36.686499",二网,8：30-19：00,1,130000,130400,130481,河北省,邯郸市,武安市,114.160125,36.686499
911,A0310001F13,北安乐乡雅迪专卖店,北安乐乡安乐卫生院西行50米路北,15232080817,"114.342073,36.781272",二网,8：30-19：00,1,130000,130400,130481,河北省,邯郸市,武安市,114.342073,36.781272
912,A0310001F14,赵店雅迪专卖店,赵店新世纪广场中兴路939号,13131000115,"114.203569,36.697503",二网,8：30-19：00,1,130000,130400,130481,河北省,邯郸市,武安市,114.203569,36.697503
913,A0310001F15,夏庄雅迪专卖店,309国道夏庄路口G309(荣兰线)旁,13930025248,"114.038524,36.637479",二网,8：30-19：00,1,130000,130400,130481,河北省,邯郸市,武安市,114.038524,36.637479
914,A0310001F18,下白石村雅迪专卖店,下白石村口,13333205998,"114.12735,36.657555",二网,8：30-19：00,1,130000,130400,130481,河北省,邯郸市,武安市,114.12735,36.657555
915,A0310001F19,贺进镇雅迪专卖店,贺进镇市场东路北S312旁,15932781103,"114.02761,36.798859",二网,8：30-19：00,1,130000,130400,130481,河北省,邯郸市,武安市,114.02761,36.798859
916,A0310001F20,东万安村雅迪专卖店,西寺庄乡东万安村,13031451106,"114.033301,36.729036",二网,8：30-19：00,1,130000,130400,130481,河北省,邯郸市,武安市,114.033301,36.729036
917,A0310001F21,磁山镇雅迪专卖店,磁山镇万年矿市场信用社对面永平大街,18632057212,"114.122253,36.595927",二网,8：30-19：00,1,130000,130400,130481,河北省,邯郸市,武安市,114.122253,36.595927
918,A0310001F22,冶陶镇雅迪专卖店,冶陶镇冶陶村口G309(荣兰线)旁,15175089678,"113.944422,36.646253",二网,8：30-19：00,1,130000,130400,130481,河北省,邯郸市,武安市,113.944422,36.646253
919,A0310001F23,伯延镇雅迪专卖店,伯延镇中学斜对面,15383802806,"114.18799,36.624318",二网,8：30-19：00,1,130000,130400,130481,河北省,邯郸市,武安市,114.18799,36.624318
920,A0310001F24,峰峰和村雅迪专卖店,和村市场中段和一超旁,13383008588,"114.120917,36.548304",二网,8：30-19：00,1,130000,130400,130481,河北省,邯郸市,武安市,114.120917,36.548304
921,A0310001F26,郭二庄矿雅迪专卖店,矿山镇郭二庄村铁路口超群电器商场旁,13613105877,"114.207397,36.816073",二网,8：30-19：00,1,130000,130400,130481,河北省,邯郸市,武安市,114.207397,36.816073
922,A0310001F27,桥西路邮局雅迪专卖店,桥西路邮局东20米,15081088663,"114.210203,36.69443",二网,8：30-19：00,1,130000,130400,130481,河北省,邯郸市,武安市,114.210203,36.69443
940,A0319039F04,东九马庄村雅迪专卖店,邢台经济开发区东九马庄村,13730561636,"114.561055,37.057633",二网,8：00-20：00,1,130000,130500,130502,河北省,邢台市,桥东区,114.561055,37.057633
942,A0319039F07,皇寺镇雅迪专卖店,邢台县皇寺镇,15097955525,"114.356872,37.178978",二网,8：00-20：00,1,130000,130500,130521,河北省,邢台市,邢台县,114.356872,37.178978
943,A0319039F06,将军墓雅迪专卖店,邢台县将军墓,15532956689,"114.02856,37.22576",二网,8：00-20：00,1,130000,130500,130521,河北省,邢台市,邢台县,114.02856,37.22576
944,A0319039F08,经济开发区东大树雅迪专卖店,邢台经济开发区东大树,13730559492,"114.530119,37.054259",二网,8：00-20：00,1,130000,130500,130521,河北省,邢台市,邢台县,114.530119,37.054259
945,A0319039F10,邢东市场雅迪专卖店,邢东市场,13171752978,"114.616844,37.078618",二网,8：00-20：00,1,130000,130500,130521,河北省,邢台市,邢台县,114.616844,37.078618
946,A0319039F05,羊范镇雅迪专卖店,邢台县羊范镇,15028878288,"114.36356,37.001038",二网,8：00-20：00,1,130000,130500,130521,河北省,邢台市,邢台县,114.36356,37.001038
947,A0319039F02,祝村镇雅迪专卖店,祝村镇,15227390939,"114.616834,37.078606",二网,8：00-20：00,1,130000,130500,130521,河北省,邢台市,邢台县,114.616834,37.078606
954,A0319012E02,临城雅迪专卖店,临城临兴大街,15612982029,"114.511159,37.4453",一网,8：00-19：00,1,130000,130500,130522,河北省,邢台市,临城县,114.511159,37.4453
955,A0319007F01,旧周乡雅迪专卖店,旧周乡主街,18713944515,"114.516034,37.294256",二网,8：00-19：00,1,130000,130500,130523,河北省,邢台市,内丘县,114.516034,37.294256
956,A0319012F01,大孟镇雅迪专卖店,大孟镇工人村西头,13730382331,"115.250224,37.529638",二网,8：00-19：00,1,130000,130500,130523,河北省,邢台市,内丘县,115.250224,37.529638
957,A0319012E01,内丘县雅迪服务站,胜利东路行政服务中心斜对面,13043191528,"114.52648,37.291716",一网,8：00-19：00,1,130000,130500,130523,河北省,邢台市,内丘县,114.52648,37.291716
958,A0319012E03,内丘雅迪专卖店,内丘城南开发区振兴东路94号,18603193264,"114.469775,37.227484",一网,8：00-19：00,1,130000,130500,130523,河北省,邢台市,内丘县,114.469775,37.227484
959,A0319051E01,柏乡县雅迪专卖店,柏乡县东环路计生委对面,03197722721,"114.703146,37.500485",一网,8：00-19：00,1,130000,130500,130524,河北省,邢台市,柏乡县,114.703146,37.500485
960,A0319051F01,固城店雅迪专卖店,固城店镇固北新小区对过,15530903013,"114.739037,37.598047",二网,8：00-19：00,1,130000,130500,130524,河北省,邢台市,柏乡县,114.739037,37.598047
961,A0319051F02,寨里红强雅迪专卖店,西汪镇寨里村东口,13082013895,"114.703114,37.500484",二网,8：00-19：00,1,130000,130500,130524,河北省,邢台市,柏乡县,114.703114,37.500484
965,A0319037F05,南苏专雅迪卖店,宁晋县河渠镇南苏诚信家电旁,15097982312,"114.712938,37.538356",二网,8：00-19：00,1,130000,130500,130524,河北省,邢台市,柏乡县,114.712938,37.538356
966,A0319016E01,隆尧新华路雅迪专卖店,隆尧县新华路迎宾旅馆旁,03196669161,"114.782522,37.358795",一网,8：00-19：00,1,130000,130500,130525,河北省,邢台市,隆尧县,114.782522,37.358795
967,A0319016F01,牛桥村平安东路雅迪专卖店,牛桥村平安东路更生巷,15930961649,"114.912763,37.365307",二网,8：00-19：00,1,130000,130500,130525,河北省,邢台市,隆尧县,114.912763,37.365307
968,A0319016F02,平乡镇东良路雅迪专卖店,平乡镇东良路口东大通南街15,13731065418,"114.659074,37.318614",二网,8：00-19：00,1,130000,130500,130525,河北省,邢台市,隆尧县,114.659074,37.318614
969,A0319016F03,大张庄雅迪专卖店,大张庄村南商品街,13292151956,"114.857713,37.408628",二网,8：00-19：00,1,130000,130500,130525,河北省,邢台市,隆尧县,114.857713,37.408628
970,A0319016F04,固城镇文明路雅迪专卖店,固城镇文明路,03196782596,"114.791874,37.466656",二网,8：00-19：00,1,130000,130500,130525,河北省,邢台市,隆尧县,114.791874,37.466656
971,A0319016F05,大霍乡雅迪专卖店,大霍集贸市场东队路东,13932992517,"114.689342,37.393528",二网,8：00-19：00,1,130000,130500,130525,河北省,邢台市,隆尧县,114.689342,37.393528
972,A0319007F02,骆庄乡雅迪专卖店,骆庄乡,15369971534,"114.818839,37.122251",二网,8：00-19：00,1,130000,130500,130526,河北省,邢台市,任县,114.818839,37.122251
973,A0319007F03,辛店镇雅迪专卖店,辛店镇老大街卫生院东邻,15930067194,"114.889274,37.139613",二网,8：00-19：00,1,130000,130500,130526,河北省,邢台市,任县,114.889274,37.139613
974,A0319007F04,永福庄雅迪专卖店,永福庄乡南环路,13231908882,"114.747567,37.192027",二网,8：00-19：00,1,130000,130500,130526,河北省,邢台市,任县,114.747567,37.192027
975,A0319007E01,任县雅迪专卖店1店,河北省邢台任县大转盘捷运通车业,15233190802,"114.686707,37.135278",一网,8：00-19：00,1,130000,130500,130526,河北省,邢台市,任县,114.686707,37.135278
976,A0319007E02,任县雅迪专卖店2店,河北省邢台任县老大街石头饭店西邻,13831906144,"114.684417,37.130715",一网,8：00-19：00,1,130000,130500,130526,河北省,邢台市,任县,114.684417,37.130715
977,A0319008E01,南和苏州街北关服务站,南和苏州街北关医院东门对面,03194560170,"114.70197,37.007111",一网,8：00-19：00,1,130000,130500,130527,河北省,邢台市,南和县,114.70197,37.007111
978,A0319008E02,南和县建设大街服务站,南和县建设大街,13663192822,"114.692535,37.007865",一网,8：00-19：00,1,130000,130500,130527,河北省,邢台市,南和县,114.692535,37.007865
979,A0319008F01,郝桥镇主街服务站,郝桥镇主街,13930966772,"114.806708,37.066676",二网,8：00-19：00,1,130000,130500,130527,河北省,邢台市,南和县,114.806708,37.066676
980,A0319011F04,高村雅迪专卖店,邢台沙河市高村,15132928456,"114.654927,36.919155",二网,8：00-19：00,1,130000,130500,130527,河北省,邢台市,南和县,114.654927,36.919155
984,A0319050E01,宁晋土地局雅迪专卖店,月城路移动公司南行50米路东,15030955688,"114.931622,37.619546",一网,8：00-19：00,1,130000,130500,130528,河北省,邢台市,宁晋县,114.931622,37.619546
986,A0319037F01,四芝兰雅迪专卖店,宁晋县芝兰街四芝兰镇邮政局西,13303394888,"115.165561,37.718338",二网,8：00-19：00,1,130000,130500,130528,河北省,邢台市,宁晋县,115.165561,37.718338
987,A0319037F02,大陆村雅迪专卖店,宁晋县大陆村一村富民南街陆镇家园附近,18333901980,"115.056382,37.677345",二网,8：00-19：00,1,130000,130500,130528,河北省,邢台市,宁晋县,115.056382,37.677345
988,A0319037F03,黄儿营雅迪专卖店,宁晋县贾家口镇市场街黄儿营东村上园小区,15231948314,"115.127068,37.611584",二网,8：00-19：00,1,130000,130500,130528,河北省,邢台市,宁晋县,115.127068,37.611584
989,A0319037F04,河渠专雅迪卖店,宁晋县河渠镇河渠乡河渠村南门,13731598511,"114.839969,37.602687",二网,8：00-19：00,1,130000,130500,130528,河北省,邢台市,宁晋县,114.839969,37.602687
990,A0319037F06,北河庄雅迪专卖店,宁晋县北河庄镇宁鸡线（北河庄四村小学西）,13473083966,"114.874201,37.569441",二网,8：00-19：00,1,130000,130500,130528,河北省,邢台市,宁晋县,114.874201,37.569441
991,A0319037F07,北鱼台雅迪专卖店,宁晋县凤凰镇公安局北鱼台派出所附近,13513295115,"114.965386,37.592661",二网,8：00-19：00,1,130000,130500,130528,河北省,邢台市,宁晋县,114.965386,37.592661
992,A0319037F08,大曹庄管理区雅迪专卖店,宁晋县海河路邢台市大曹庄乡第二中学东南,15132933918,"114.94396,37.564536",二网,8：00-19：00,1,130000,130500,130528,河北省,邢台市,宁晋县,114.94396,37.564536
993,A0319037F09,农场雅迪专卖店,宁晋县纬八街秦翔小区东北100米,13930931693,"114.949583,37.539723",二网,8：00-19：00,1,130000,130500,130528,河北省,邢台市,宁晋县,114.949583,37.539723
994,A0319037F10,刘路雅迪专卖店,宁晋县农村信用合作联社刘路信用社,13473064751,"115.004427,37.650915",二网,8：00-19：00,1,130000,130500,130528,河北省,邢台市,宁晋县,115.004427,37.650915
995,A0319037F11,孔小营雅迪专卖店,宁晋县孔小营二村小学东北350米,13780290981,"114.986707,37.724781",二网,8：00-19：00,1,130000,130500,130528,河北省,邢台市,宁晋县,114.986707,37.724781
996,A0319037F12,唐邱龙泉路雅迪专卖店,宁晋县唐邱乡龙泉路唐邱三村小学北150米,13315941413,"114.986329,37.696425",二网,8：00-19：00,1,130000,130500,130528,河北省,邢台市,宁晋县,114.986329,37.696425
997,A0319037F13,高庄合雅迪专卖店,宁晋县苏家庄镇宁司线高庄窠小学西北250米,13643190116,"115.060424,37.723956",二网,8：00-19：00,1,130000,130500,130528,河北省,邢台市,宁晋县,115.060424,37.723956
998,A0319037F14,铺头雅迪专卖店,宁晋县铺头村口,13292192344,"115.056438,37.534726",二网,8：00-19：00,1,130000,130500,130528,河北省,邢台市,宁晋县,115.056438,37.534726
999,A0319037F15,司马雅迪专卖店,宁晋县苏家庄镇中兴路中国邮政旁,18732956700,"115.101605,37.757681",二网,8：00-19：00,1,130000,130500,130528,河北省,邢台市,宁晋县,115.101605,37.757681
1000,A0319037F16,候口雅迪专卖店,宁晋县侯口乡侯口三村小学附近,13932957895,"115.166953,37.563693",二网,8：00-19：00,1,130000,130500,130528,河北省,邢台市,宁晋县,115.166953,37.563693
1001,A0319037F17,艾辛庄雅迪专卖店,宁晋县东汪镇迪瑞特服饰西北200米,13403296961,"115.078135,37.52703",二网,8：00-19：00,1,130000,130500,130528,河北省,邢台市,宁晋县,115.078135,37.52703
1002,A0319037F18,唐邱农村商业银行雅迪专卖店,宁晋县唐邱乡农村商业银行西50米,13400193645,"114.958278,37.70638",二网,8：00-19：00,1,130000,130500,130528,河北省,邢台市,宁晋县,114.958278,37.70638
1003,A0319019E01,巨鹿县秦泽路雅迪专卖店,秦泽东路与秦泽西路交叉口西100米,13780596979,"115.042512,37.217714",一网,8：00-19：00,1,130000,130500,130529,河北省,邢台市,巨鹿县,115.042512,37.217714
1004,A0319019F01,团城镇雅迪专卖店,327省道化肥公司旁,13932975035,"115.189195,37.366944",二网,8：00-19：00,1,130000,130500,130529,河北省,邢台市,巨鹿县,115.189195,37.366944
1005,A0319019F02,樊家村雅迪专卖店,324省道樊家村村口,15075984532,"115.064552,37.312114",二网,8：00-19：00,1,130000,130500,130529,河北省,邢台市,巨鹿县,115.064552,37.312114
1006,A0319019F03,西郭城镇雅迪专卖店,西郭城镇卫生院旁,15930698345,"114.905761,37.249039",二网,8：00-19：00,1,130000,130500,130529,河北省,邢台市,巨鹿县,114.905761,37.249039
1007,A0319039F09,桃园镇雅迪专卖店,桃园镇,13930928839,"115.2583875,37.24438",二网,8：00-20：00,1,130000,130500,130531,河北省,邢台市,广宗县,115.2583875,37.24438
1009,A0319028E01,广宗县兴广路雅迪专卖店,广宗县兴广路交通岗北行50米路东,15227312245,"115.152448,37.084106",一网,8：00-19：00,1,130000,130500,130531,河北省,邢台市,广宗县,115.152448,37.084106
1010,A0319039E04,达活泉路雅迪专卖店,达活泉店,18833457570,"114.481625,37.0813",一网,8：00-20：00,1,130000,130500,130532,河北省,邢台市,平乡县,114.481625,37.0813
1011,A0319039F03,电厂路口雅迪专卖店,邢台电厂路口,18713900807,"114.501837,37.015319",二网,8：00-20：00,1,130000,130500,130532,河北省,邢台市,平乡县,114.501837,37.015319
1012,A0319039E01,新华南路雅迪专卖店1,新华南路146号,15226823323,"114.499398,37.059214",一网,8：00-20：00,1,130000,130500,130532,河北省,邢台市,平乡县,114.499398,37.059214
1013,A0319039E02,新华南路雅迪专卖店2,河北省邢台新华南路店2店,15933346369,"114.498503,37.062407",一网,8：00-20：00,1,130000,130500,130532,河北省,邢台市,平乡县,114.498503,37.062407
1014,A0319039E03,冶金路雅迪专卖店,邢台冶金路店,15630964007,"114.500351,36.854856",一网,8：00-20：00,1,130000,130500,130532,河北省,邢台市,平乡县,114.500351,36.854856
1015,A0319039F01,豫东市场雅迪专卖店,豫东市场,13833964611,"114.509661,37.093994",二网,8：00-20：00,1,130000,130500,130532,河北省,邢台市,平乡县,114.509661,37.093994
1016,A0319039E05,中兴东大街（物美百货）1,中兴东大街（物美百货）,15933703434,"114.507391,37.063522",一网,8：00-20：00,1,130000,130500,130532,河北省,邢台市,平乡县,114.507391,37.063522
1017,A0319039E07,新华南路服务站,新华南路,15131958774,"114.501858,37.015336",一网,8：00-20：00,1,130000,130500,130532,河北省,邢台市,平乡县,114.501858,37.015336
1026,A0319033E01,平乡县中华路雅迪专卖店,平乡县中华路家乐园超市对面,03197837636,"115.044356,37.068523",一网,8：00-19：00,1,130000,130500,130532,河北省,邢台市,平乡县,115.044356,37.068523
1027,A0319033F01,平乡镇雅迪专卖店,平乡镇汽车站西100米路南,13383197799,"115.045852,37.068574",二网,8：00-19：00,1,130000,130500,130532,河北省,邢台市,平乡县,115.045852,37.068574
1028,A0319033F02,平乡县节固乡雅迪专卖店,平乡县节固乡农村信用社对面,18131976309,"114.983287,37.098448",二网,8：00-19：00,1,130000,130500,130532,河北省,邢台市,平乡县,114.983287,37.098448
1029,A0319033F03,常河镇雅迪专卖店,常河镇农行西50米路南,13082018758,"115.012921,36.981377",二网,8：00-19：00,1,130000,130500,130532,河北省,邢台市,平乡县,115.012921,36.981377
1030,A0319033F04,河古庙镇雅迪专卖店,河古庙国贸超市东50米路北,13722921705,"115.122612,36.985618",二网,8：00-19：00,1,130000,130500,130532,河北省,邢台市,平乡县,115.122612,36.985618
1031,A0319033F05,第二疃村雅迪专卖店,325省道中国移动旁,18632983878,"114.939592,37.074934",二网,8：00-19：00,1,130000,130500,130532,河北省,邢台市,平乡县,114.939592,37.074934
1032,A0319033F06,游庄雅迪专卖店,平乡县东游庄主街农村信用社旁,15833650352,"114.994502,37.147066",二网,8：00-19：00,1,130000,130500,130532,河北省,邢台市,平乡县,114.994502,37.147066
1033,A0319039F12,常屯镇雅迪专卖店,常屯镇,18131912999,"115.47916,37.068652",二网,8：00-20：00,1,130000,130500,130533,河北省,邢台市,威县,115.47916,37.068652
1034,A0319039F13,七级镇雅迪专卖店,七级,15532967770,"115.355548,37.261573",二网,8：00-20：00,1,130000,130500,130533,河北省,邢台市,威县,115.355548,37.261573
1035,A0319039F14,邵古镇雅迪专卖店,邵古,13231945189,"115.539903,36.959234",二网,8：00-20：00,1,130000,130500,130533,河北省,邢台市,威县,115.539903,36.959234
1036,A0319039F11,章台镇雅迪专卖店,章台镇,13363758383,"115.34021,37.16326",二网,8：00-20：00,1,130000,130500,130533,河北省,邢台市,威县,115.34021,37.16326
1041,A0319052E01,玉兰东路雅迪专卖店,临西县玉兰东路,15094462999,"115.506687,36.865903",一网,8：00-19：00,1,130000,130500,130535,河北省,邢台市,临西县,115.506687,36.865903
1042,A0319052F01,下堡寺雅迪专卖店,临西县下堡寺镇政府100米路北,15075908857,"115.387562,36.862261",二网,8：00-19：00,1,130000,130500,130535,河北省,邢台市,临西县,115.387562,36.862261
1043,A0319052F02,白地乡雅迪专卖店,张摇线王白地村白地派出所西500米路南,15081491786,"115.410829,36.809017",二网,8：00-19：00,1,130000,130500,130535,河北省,邢台市,临西县,115.410829,36.809017
1044,A0319025E01,南宫市南大街雅迪专卖店,南宫市南大街陵园北行200米路西雅迪电动车旗舰店,13803196568,"115.389608,37.363874",一网,8：00-19：00,1,130000,130500,130581,河北省,邢台市,南宫市,115.389608,37.363874
1045,A0319025F01,明化乡雅迪专卖店,明化乡珍爱一生婚纱儿童摄影斜对面,15075936456,"115.589422,37.31382",二网,8：00-19：00,1,130000,130500,130581,河北省,邢台市,南宫市,115.589422,37.31382
1046,A0319025F02,南宫仔仲开发区东头雅迪专卖店,南宫仔仲镇凯悦酒店南行200米路西,13383690826,"115.699371,37.24504",二网,8：00-19：00,1,130000,130500,130581,河北省,邢台市,南宫市,115.699371,37.24504
1047,A0319011F01,新城镇雅迪专卖店,河北省邢台沙河市新城镇,13931921370,"114.366464,36.884867",二网,8：00-19：00,1,130000,130500,130582,河北省,邢台市,沙河市,114.366464,36.884867
